room_id,url,rating,city,contextualPicturesCount,lat,long,listingObjType,pdpUrlType,name,roomTypeCategory,reviewCount,isSuperHost,isVerified,yearHosting,canInstantBook,weeklyPriceFactor,structuredStayDisplayPrice,price,price_full,maxGuestCapacity,SYSTEM_WI_FI,SYSTEM_MAPS_CAR_RENTAL,SYSTEM_PETS,SYSTEM_FLOWER,SYSTEM_HAIRDRYER,SYSTEM_MICROWAVE,SYSTEM_NO_LOCK_ON_DOOR,SYSTEM_NO_DETECTOR_CO2,SYSTEM_NO_DETECTOR_SMOKE,SYSTEM_COOKING_BASICS,SYSTEM_WORKSPACE,SYSTEM_SNOWFLAKE,SYSTEM_PATIO_BALCONY,SYSTEM_LUGGAGE_DROP,SYSTEM_SURVEILLANCE,SYSTEM_LOCK_ON_DOOR,SYSTEM_BATHTUB,SYSTEM_VIEW_OCEAN,SYSTEM_JACUZZI,SYSTEM_TV,SYSTEM_WASHER,SYSTEM_FIREPLACE,SYSTEM_BREAKFAST,SYSTEM_SMOKING_ALLOWED,SYSTEM_REFRIGERATOR,SYSTEM_FIREPIT,SYSTEM_BEACH,SYSTEM_DRYER,SYSTEM_TOYS,SYSTEM_CALENDAR,SYSTEM_POOL,SYSTEM_ELEVATOR,SYSTEM_CRIB,SYSTEM_HIGH_CHAIR,SYSTEM_GYM
41649095,https://www.airbnb.com.vn/rooms/41649095,"4,81",Bến Tre,30,10.22042,106.38236,REGULAR,,Cabin tre - Ẩn đi Bungalow,private_room,32,False,True,3,False,,/ đêm,592.271,₫592.271,4,True,True,True,True,True,True,False,False,False,,,,,,,,,,,,,,,,,,,,,,,,,,
43991763,https://www.airbnb.com.vn/rooms/43991763,"4,72",thành phố Bến Tre,30,10.219841158169755,106.38292152037002,REGULAR,,Coco House - Hide Away Bungalow,entire_home,18,,,,False,,/ đêm,570.589,₫570.589,4,True,True,,,,,,False,False,True,True,True,True,True,True,,,,,,,,,,,,,,,,,,,,
691103153906907763,https://www.airbnb.com.vn/rooms/691103153906907763,"5,0",thành phố Bến Tre,24,10.2666437,106.3395663,REGULAR,,Dreamy Room - Nhà Mơ Homestay Bến Tre,private_room,8,True,True,7,False,,/ đêm,456.471,₫456.471,2,True,True,,,,,,False,False,True,True,True,,,True,True,True,,,,,,,,,,,,,,,,,,
37143357,https://www.airbnb.com.vn/rooms/37143357,"4,94",thành phố Bến Tre,30,10.2021,106.44456,REGULAR,,Nhà nông trại Coco Happy,private_room,34,True,True,7,False,,/ đêm,351.818,₫351.818,6,True,True,True,True,,,,False,False,True,True,,,,True,True,,,,,,,,,,,,,,,,,,,
561233330059512549,https://www.airbnb.com.vn/rooms/561233330059512549,"5,0",thành phố Bến Tre,30,10.20741,106.39396,REGULAR,,Innerzen Mekong Riverside homestay Ben Tre,entire_home,12,,,,False,,/ đêm,2.050,₫2.050.010,4,True,True,,True,,,,False,False,True,True,,,,,,,True,True,,,,,,,,,,,,,,,,
14887208,https://www.airbnb.com.vn/rooms/14887208,"4,86",tp. Bến Tre,30,10.2274,106.39228,REGULAR,,Ba Danh Home,private_room,46,True,True,7,False,,/ đêm,376.588,₫376.588,2,True,,True,,,,,False,,True,,,,,,True,,,,True,True,True,True,True,,,,,,,,,,,
833598761009394855,https://www.airbnb.com.vn/rooms/833598761009394855,,Bến Tre,30,10.220326999864543,106.38247281224903,REGULAR,,Studio Cabin với tầm nhìn ra vườn,entire_home,,,,,False,,/ đêm,456.471,₫456.471,2,True,True,True,True,,,,False,False,True,True,,,,True,,,True,,,,,,,,,,,,,,,,,
711997373283060824,https://www.airbnb.com.vn/rooms/711997373283060824,"4,8",thành phố Bến Tre,18,10.26102,106.35755,REGULAR,,Fantasy Room - Nhà Mơ Homestay Bến Tre,private_room,5,True,True,7,False,,/ đêm,776.000,₫776.000,4,True,True,,,,,,False,False,True,True,True,,,True,True,True,,,,,,,,,,,,,,,,,,
712030629719224095,https://www.airbnb.com.vn/rooms/712030629719224095,,thành phố Bến Tre,24,10.26952,106.32378,REGULAR,,Nhà nguyên căn - Nhà Mơ Homestay Bến Tre,entire_home,,,,,False,,/ đêm,1.597,₫1.597.648,10,True,True,,True,,,,False,False,True,True,True,,,True,,True,,,,,,,,,,,,,,,,,,
38537162,https://www.airbnb.com.vn/rooms/38537162,"4,43",thành phố Bến Tre,30,10.22506,106.35054,REGULAR,,Sunny Bungalows-Bến Tre ven sông,entire_home,14,,,,False,,/ đêm,646.667,₫646.667,3,True,True,,True,,,,False,False,,,True,True,,,,,,,True,,,,,True,,,,,,,,,,
886097600240897188,https://www.airbnb.com.vn/rooms/886097600240897188,,thành phố Bến Tre,7,10.19841,106.39372,REGULAR,,Have Nest Retreat (Cá Mè Dinh),private_room,,,,,False,,/ đêm,1.711,₫1.711.766,2,True,True,,True,,,,False,False,,True,True,,,,,,True,,,True,,,,,,,,,,,,,,
21938479,https://www.airbnb.com.vn/rooms/21938479,"4,89",Châu Thành,21,10.31041,106.33204,REPRESENTATIVE,,Bungalow Garden View,private_room,27,False,True,5,False,,/ đêm,528.252,₫528.252,2,True,True,True,True,True,True,False,False,,True,True,,,,,,,,,,,,,,,,,,,,,,,,
751010133250000790,https://www.airbnb.com.vn/rooms/751010133250000790,,thành phố Bến Tre,27,10.22452,106.34985,REGULAR,,Sunny bungalow gạchalow gỗ,entire_home,,,,,False,,/ đêm,684.706,₫684.706,4,True,True,,,True,,,False,False,,True,True,,,,,,,,True,,,,,,,,,,,,,,,
38195574,https://www.airbnb.com.vn/rooms/38195574,"5,0",thành phố Bến Tre,30,10.19399,106.44407,REGULAR,,Nhà nông trại Coco Happy,private_room,5,True,True,7,False,,/ đêm,,,2,True,True,True,True,,,,False,False,True,True,,,,,True,,,,True,,,,,,,,,,,,,,,
17162932,https://www.airbnb.com.vn/rooms/17162932,"4,86",tt. Cái Bè,15,10.33807,106.03126,REGULAR,,Nhà nghỉ Nam Thi (Homestay),entire_home,64,,,,False,,/ đêm,855.883,₫855.883,2,True,True,True,,,,,False,False,,,True,,,,,True,,,,,True,,True,,,,,,,,,,,
880765874070716355,https://www.airbnb.com.vn/rooms/880765874070716355,,Hang Kia,7,10.287420501375857,106.4459079131484,REGULAR,,một ngôi nhà thoáng mát,private_room,,,,,False,,/ đêm,,,16,True,True,,,True,,,False,False,True,,,,,True,,,,,,,True,,,,True,,,,,,,,,
40987330,https://www.airbnb.com.vn/rooms/40987330,,Cái Bè,30,10.33947,106.02901,REGULAR,,NHÀ HÀ PHAN,entire_home,,,,,False,,/ đêm,684.706,₫684.706,5,True,True,True,,True,,,False,False,True,,True,,,,,,,True,,True,,,,,,,,,,,,,,
832218183018837715,https://www.airbnb.com.vn/rooms/832218183018837715,,Bình Phú,7,10.24416,106.33132,REGULAR,,Homestay Bảo Bình,entire_home,,,,,False,,/ đêm,802.991,₫802.991,16,True,True,True,True,,,,False,False,True,True,,,,True,,,,,,,,,,,,True,,,,,,,,
42417319,https://www.airbnb.com.vn/rooms/42417319,"4,8",Bến Tre,30,10.22011,106.38299,REGULAR,,Stilt house - Hide Away Bungalow,private_room,5,False,True,3,False,,/ đêm,319.530,₫319.530,4,True,True,True,True,,,False,False,False,True,,,True,,,,,,,,,,,,,,,,,,,,,,
42412905,https://www.airbnb.com.vn/rooms/42412905,"4,86",Bến Tre,30,10.22058,106.38192,REGULAR,,Cube House - Hide Away Bungalow,private_room,14,False,True,3,False,,/ đêm,513.530,₫513.530,2,True,True,True,,,,,False,False,True,,True,True,,,True,,,,,True,,,,,,,,,,,,,,
22491088,https://www.airbnb.com.vn/rooms/22491088,"5,0",Châu Thành,20,10.31041,106.33204,REPRESENTATIVE,,Tầm nhìn ra Bungalow Pond,private_room,8,,,,False,,/ đêm,527.700,₫527.700,2,True,True,True,True,True,,,False,,True,True,,,,,,,,,,,,,True,,,,True,,,,,,,
39975643,https://www.airbnb.com.vn/rooms/39975643,"4,82",Đông Hòa Hiệp,30,10.33366,106.0402,REGULAR,,Sống cùng gia đình bản xứ Thu Huỳnh - Cái Bè,private_room,17,,,,False,,/ đêm,347.972,₫347.972,9,True,True,True,True,,,,False,False,,,True,,,,,,,,True,True,,,,,,,True,,,,,,,
847446154217661686,https://www.airbnb.com.vn/rooms/847446154217661686,,Càng Long,19,9.995312246619639,106.24123013873331,REGULAR,,Nhà riêng ven sông - Mekong,entire_home,,,,,False,,/ đêm,2.054,₫2.054.119,6,True,,,,,,,False,False,True,True,True,,,,,,,,True,True,,,,,,,,,,,,,,
34833660,https://www.airbnb.com.vn/rooms/34833660,"4,67",Mỹ Tho,30,10.33374,106.32848,REGULAR,,Sống cùng gia đình bản xứ Ve Nha Chu,private_room,3,False,False,4,False,,/ đêm,345.741,₫345.741,12,True,,,,,,False,False,False,True,True,,True,,,,,,,,True,,,True,,,,,,,,,,,
14985993,https://www.airbnb.com.vn/rooms/14985993,"4,73",,30,10.04883,106.58271,REGULAR,,Sống cùng gia đình bản xứ Ba Tri - Sống cùng gia đình bản xứ trong mơ tuyệt vời,private_room,41,False,True,6,False,,/ đêm,342.353,₫342.353,2,True,True,True,,,,,False,False,True,True,,,,,True,,,,True,True,,,,,,,,,,,,,,
22472346,https://www.airbnb.com.vn/rooms/22472346,"4,31",,19,10.33767,106.03163,REGULAR,,Nhien Duy Bungalow,entire_home,13,,,,False,,/ đêm,,,3,True,True,True,,,,,False,False,True,,True,,,,,,,True,,,,True,,,,,,,,,,,,
37232802,https://www.airbnb.com.vn/rooms/37232802,,Châu Thành,30,10.30972,106.33289,REGULAR,,Hướng nhìn ra vườn có điều hòa,private_room,2,False,True,5,False,,/ đêm,640.200,₫640.200,4,True,True,True,True,True,True,False,False,,,True,True,,,,,,,,,,,,,,,,,,,,,,,
27858454,https://www.airbnb.com.vn/rooms/27858454,"4,83",Gò Công,16,10.3141,106.71147,REGULAR,,SONG NAM VILLAGE,private_room,6,False,False,5,False,,/ đêm,798.824,₫798.824,2,True,True,,,,,False,False,False,True,True,True,,,,,,,,True,True,,,,,,,,,,,,,,
773548940856976194,https://www.airbnb.com.vn/rooms/773548940856976194,,Châu Thành,22,10.30443,106.35422,REGULAR,,P&J Bến Tre Garden,private_room,,False,True,,False,,/ đêm,570.589,₫570.589,4,,,,,,,False,False,False,,,,,,,,,,,,,,,,,,,,,,,,,,
773532356931901289,https://www.airbnb.com.vn/rooms/773532356931901289,,Châu Thành,30,10.304830098173518,106.35520935058594,REGULAR,,P&J Ben Tre Homstay,entire_home,,,,,False,,/ đêm,695.738,₫695.738,2,True,,,,,,,False,False,True,,True,,,,,,,,True,True,,,,,,,,,,,,,,
46857004,https://www.airbnb.com.vn/rooms/46857004,,Bến Tre,30,10.1038,106.44216,REGULAR,,Maison du Pays de Bến Tre,private_room,,False,False,,False,,/ đêm,741.765,₫741.765,2,True,True,True,True,,,,False,False,True,True,,,,,True,,,,True,,,,,,,,,,,,,,,
24024207,https://www.airbnb.com.vn/rooms/24024207,"5,0",Thành phố Trà Vinh,4,9.93211,106.33558,REGULAR,,Nhà ngọt ở Trà Vinh,entire_home,9,,,,False,,/ đêm,508.562,₫508.562,2,True,True,,,,,,False,,,,True,,,,,,,,True,,,,,,,,,,,,,,,
35949686,https://www.airbnb.com.vn/rooms/35949686,"3,33",Trà Vinh,10,9.91217,106.31263,REGULAR,,Nhà trọ thuộc sở hữu của gia đình gần thành phố và các điểm du lịch,private_room,3,,,,False,,/ đêm,376.588,₫376.588,4,True,True,,,,,,False,False,,,True,,,,,,,,True,,,,,,,,,,,,,,,
28572408,https://www.airbnb.com.vn/rooms/28572408,,Thành phố Trà Vinh,21,9.96266,106.34398,REGULAR,,Hoài Hiệp Hostel,private_room,,,,,False,,/ đêm,,,2,True,True,True,,,,,False,False,True,,True,,,True,,,,,True,True,,,,,,,,,,,,,,
40411276,https://www.airbnb.com.vn/rooms/40411276,,Thành phố Trà Vinh,6,9.94012,106.34167,REGULAR,,DH tại thị trấn nhỏ,private_room,,False,False,,False,,/ đêm,695.897,₫695.897,2,True,True,True,,,,False,False,False,True,,,,,,,,,,True,True,,,,,,,True,,,,,,,
37980828,https://www.airbnb.com.vn/rooms/37980828,,Châu Thành,22,10.31152,106.33263,REGULAR,,Hướng nhìn ra vườn có điều hòa,private_room,1,False,True,5,False,,/ đêm,,,4,True,True,True,True,True,,False,False,False,,True,True,,,,,,,,,,,,,,,,,,,,,,,
845115301971890109,https://www.airbnb.com.vn/rooms/845115301971890109,,,15,9.92366,106.4224,REGULAR,,Co Chien River HomeStay 1 - All Inclusive,entire_home,,,,,False,,/ đêm,1.740,₫1.740.295,2,True,,,,,,,False,False,,,True,,,,,,,,,,,,True,,,,,,,,,,,
22490795,https://www.airbnb.com.vn/rooms/22490795,"5,0",Châu Thành,20,10.31041,106.33204,REGULAR,,Bungalow Garden View,private_room,8,False,True,5,False,,/ đêm,528.252,₫528.252,2,True,True,True,True,True,,False,False,,,True,,,,,,,,,,,,,True,,,,,,,,,,,
33644049,https://www.airbnb.com.vn/rooms/33644049,,Thành phố Trà Vinh,8,9.95805,106.34614,REGULAR,,Tran Riverside homestay,private_room,,False,False,,False,,/ đêm,268.177,₫268.177,2,True,True,True,,True,,,False,,True,,,,,,True,,,,,,,True,,,,,,,,,,,,
37990835,https://www.airbnb.com.vn/rooms/37990835,,Châu Thành,18,10.31093,106.33259,REGULAR,,Hướng nhìn ra vườn có điều hòa,private_room,,False,True,,False,,/ đêm,642.370,₫642.370,4,True,True,True,True,True,,False,False,,,True,True,,,,,,,,,,,,True,,,,,,,,,,,
50779533,https://www.airbnb.com.vn/rooms/50779533,,Gò Công Tây,10,10.3334,106.58596,REGULAR,,Đi đến nhà chúc mừng.,private_room,,False,True,,False,,/ đêm,,,5,True,True,,True,,,False,False,False,True,True,,,,,,,,,,,,,,,,,,,,,,,,
21542807,https://www.airbnb.com.vn/rooms/21542807,"5,0",Tân Phong,20,10.31864,106.05284,REGULAR,,Mekong Ecolodge,private_room,4,,,,False,,/ đêm,1.070,₫1.070.633,4,True,,True,,True,,,False,False,,,True,,,,,,,,,True,,True,True,,,,,,,,,,,
28149567,https://www.airbnb.com.vn/rooms/28149567,"4,5",Trà Vinh,14,9.93968,106.27395,REGULAR,,Nhà khách Vilabasi Mekong - Phòng 1,private_room,4,,,,False,,/ đêm,481.803,₫481.803,2,True,True,,,True,,,,False,True,,True,,,,,,,,,True,,,,True,,,,True,,,,,,
21378527,https://www.airbnb.com.vn/rooms/21378527,,Phú Túc,9,10.31346,106.2618,REGULAR,,QUỐC PHƯƠNG RIVERSIDE HOMESTAY,private_room,,,,,False,,/ đêm,936.809,₫936.809,2,True,,,,,,,False,False,,,,True,,,,,,,,,,True,,,True,,,,,,,,,
27858764,https://www.airbnb.com.vn/rooms/27858764,,Gò Công,17,10.31244,106.71174,REGULAR,,SONG NAM VILLAGE,private_room,2,False,False,5,False,,/ đêm,798.824,₫798.824,2,True,True,,True,,,False,False,False,True,True,True,,,,,,True,,,,,,,,,,,,,,,,,
787941172277079891,https://www.airbnb.com.vn/rooms/787941172277079891,,Đa Lộc,30,9.86826,106.33291,REGULAR,,Nơi nghĩ dưỡng tuyệt vời,entire_home,,,,,False,,/ đêm,3.423,₫3.423.531,10,True,True,,,,,,False,False,True,True,True,,,,,,True,,True,True,,,,,,,,,,,,,,
801133552088537528,https://www.airbnb.com.vn/rooms/801133552088537528,,thành phố Bến Tre,14,10.258737141470771,106.39115993155157,REGULAR,,Trạm làm việc thư giãn tại Coconut Garden,private_room,,False,True,,False,,/ đêm,513.530,₫513.530,10,True,True,True,True,True,,,False,False,,True,,,,,True,,,,,,,,,,,,,,,,,,,
38838504,https://www.airbnb.com.vn/rooms/38838504,,Bến Tre,30,10.22718,106.40545,REGULAR,,Toàn bộ gia đình bản xứ 4 BR - Nguyệt Quế,entire_home,,,,,False,,/ đêm,3.423,₫3.423.531,8,True,True,,,,,,False,False,,,True,,True,,,,,,True,,,True,True,,,,,,True,,,,,
40512673,https://www.airbnb.com.vn/rooms/40512673,,Bến Tre,16,10.24427,106.41167,REGULAR,,Chỗ ở Bến Tre,private_room,,False,True,,False,,/ đêm,362.303,₫362.303,6,True,,,,,,False,False,False,True,,,,,,,,,,True,,,True,True,,,,,,,,,,,
39805937,https://www.airbnb.com.vn/rooms/39805937,,Trà Vinh,5,9.95249,106.33566,REGULAR,,Nhà Trà || Nhà khá giả với người dân địa phương,private_room,,False,False,,False,,/ đêm,910.037,₫910.037,4,True,,True,,,,,False,False,True,,True,,,,True,,,,True,,,True,True,,,,,,,,,,,
39454840,https://www.airbnb.com.vn/rooms/39454840,,TP Trà Vinh,5,9.909,106.15481,REGULAR,,Trà Vinh@ Nơi sống tự nhiên,private_room,,False,False,,False,,/ đêm,912.885,₫912.885,4,True,,,,True,,,False,False,True,,True,,,,True,,,,True,,,True,True,,,,,,,,,,,
45533935,https://www.airbnb.com.vn/rooms/45533935,,Càng Long,18,9.93591,106.27142,REGULAR,,Bungalow ẩn trong khu vườn xinh đẹp,entire_home,,,,,False,,/ đêm,401.495,₫401.495,2,True,True,,,True,,,False,False,True,,True,,,True,,,,,True,True,,,,,,,,,,,,,,
5573907,https://www.airbnb.com.vn/rooms/5573907,"4,65",tt. Cái Bè,22,10.32353,106.0487,REGULAR,,"Bungalow 4 ""CAM (CAM)"" - Lối thoát lý tưởng",private_room,93,False,True,8,False,,/ đêm,513.530,₫513.530,2,True,True,,True,True,,,,,,,True,,,,True,,,,,True,,,True,True,,,,,,,,,,
19703297,https://www.airbnb.com.vn/rooms/19703297,,thành phố Bến Tre,10,10.23592,106.36614,REGULAR,,Bà Ba Mười Bông Dừa,private_room,,,,,False,,/ đêm,330.941,₫330.941,5,True,True,True,,,,,False,False,True,True,True,,,,,,,,True,True,,,,,,,,,,,,,,
25700490,https://www.airbnb.com.vn/rooms/25700490,,Trung Nghĩa,6,10.02624,106.2168,REGULAR,,Biệt thự thoải mái cho một kỳ nghỉ thư giãn,entire_home,,,,,False,,/ đêm,936.822,₫936.822,6,True,True,,,,,,,,True,,True,,,,,,,True,True,True,,,,,,,True,,,True,True,,,
677756806659581371,https://www.airbnb.com.vn/rooms/677756806659581371,,Giồng Trôm,10,10.225734216766902,106.41626027930558,REGULAR,,Phòng Deluxe tại Mango Home,private_room,,,,,False,,/ đêm,1.141,₫1.141.177,2,True,,,,,,,False,False,,,True,,True,True,,,True,,,,,,,,,,,True,,True,,True,,
44494549,https://www.airbnb.com.vn/rooms/44494549,,thành phố Bến Tre,8,10.25061,106.37982,REGULAR,,Căn hộ Thiên An tại Bến Tre,private_room,,False,True,,False,,/ đêm,776.189,₫776.189,2,True,True,,,True,,False,,,True,,True,,,,,,,,True,,,,,,,,,,,,,,,
822737529118357517,https://www.airbnb.com.vn/rooms/822737529118357517,,Châu Thành,5,10.33477,106.37085,REGULAR,,Homestay Double RooM Coco Island,private_room,,,,,False,,/ đêm,912.942,₫912.942,2,True,True,,,,,,False,False,,True,True,,,,,,True,,True,,,,,,,,,,,,,,,
25553042,https://www.airbnb.com.vn/rooms/25553042,,Bến Tre,30,10.28338,106.26157,REGULAR,,Sống cùng gia đình bản xứ Ve Nha,private_room,,,,,False,,/ đêm,268.177,₫268.177,16,True,True,True,,,,,False,False,True,,,,,,,,,,,True,,True,,,,,True,,,True,,,,
738720520405093309,https://www.airbnb.com.vn/rooms/738720520405093309,,Đa Lộc,30,9.86716,106.33406,REGULAR,,Nơi tốt để thư giãn vào cuối tuần.,entire_home,,,,,False,,/ đêm,3.423,₫3.423.531,10,,,,,,,,False,False,,,,True,,,,,,,,,,,,True,,,,True,,,,,True,
677768789889532832,https://www.airbnb.com.vn/rooms/677768789889532832,,Giồng Trôm,9,10.225631614499921,106.41543687475192,REGULAR,,Phòng Deluxe tại Mango Home,private_room,,,,,False,,/ đêm,1.141,₫1.141.177,2,True,,,,,,,False,False,,,True,,True,True,,,True,,,,,,,,,,,True,,True,,True,,
41845441,https://www.airbnb.com.vn/rooms/41845441,,,6,10.21514,106.48425,REGULAR,,"Room 4 foreigner to discover Bentre, Mekong ^ VN",private_room,,False,False,,False,,/ đêm,267.664,₫267.664,2,True,True,,,,,False,False,False,True,,,,,True,,,,,True,True,,,,,,,,,,,,,,
32757905,https://www.airbnb.com.vn/rooms/32757905,,Châu Thành,5,10.30514,106.39509,REGULAR,,"nhà nghỉ Thanh Tùng
số đt:0907967425",private_room,,,,,False,,/ đêm,342.353,₫342.353,16,True,True,,True,True,,,False,False,,,True,,,,,,,True,True,,,,,,True,,,,,,,,,
42399634,https://www.airbnb.com.vn/rooms/42399634,,thành phố Bến Tre,7,10.23143,106.35913,REGULAR,,Bến Tre - Ngôi nhà hạnh phúc,private_room,,False,False,,False,,/ đêm,285.294,₫285.294,2,True,True,,,,,,False,False,True,,,,,,True,,,True,True,True,,,,,,,True,,,,,,,
27030332,https://www.airbnb.com.vn/rooms/27030332,,Cai Lậy,30,10.31895,106.0389,REGULAR,,Gia đình Mekong Nam Giang có chỗ nghỉ phục vụ bữa sáng,private_room,2,False,False,5,False,,/ đêm,346.494,₫346.494,16,True,True,True,,,,False,False,False,True,,True,,,,,,,,,True,,,,,,,,,,True,,,,
45625491,https://www.airbnb.com.vn/rooms/45625491,,Tân Thạch,6,10.33612,106.36849,REGULAR,,Cona Hotel Cồn Phụng Bến Tre,private_room,,,,,False,,/ đêm,570.589,₫570.589,2,True,True,,,,,,False,False,,,True,,,,,,,,True,True,,True,True,,,,True,,,,,,,
677786082464080746,https://www.airbnb.com.vn/rooms/677786082464080746,,Giồng Trôm,12,10.225765739400758,106.41547278878562,REGULAR,,Phòng gia đình tại Mango Home,private_room,,,,,False,,/ đêm,2.168,₫2.168.236,4,True,True,,,,,,False,False,,,True,,True,True,,,True,,,,,,,,,,,,,True,,True,,
829351044817125683,https://www.airbnb.com.vn/rooms/829351044817125683,,Chợ Lách,10,10.2606395,106.1350992,REGULAR,,Hoa Nhãn,private_room,,,,,False,,/ đêm,980.000,₫980.000,2,True,True,,,,,,False,False,,,True,,,True,,,,,True,,,,,,,,,,,True,,,,
22125233,https://www.airbnb.com.vn/rooms/22125233,,Bến Tre,7,10.2402,106.38099,REGULAR,,504 Nguyen Tat Thanh Riva Park,entire_home,,,,,False,,/ đêm,2.738,₫2.738.825,5,True,,True,,,,,False,False,True,,,,,,,,,True,True,True,,,,,,,,,,True,True,,,
759242957727026375,https://www.airbnb.com.vn/rooms/759242957727026375,,Châu Hòa,25,10.211272588879552,106.51438973844053,REGULAR,,Nhà sàn lợp lá dừa nước giữa vườn dừa mát rượi.,private_room,,,,,False,,/ đêm,855.883,₫855.883,4,True,True,,,,,,False,False,,,,,,True,,,,,,,,,,,True,,,,,,,,,
770042313911712187,https://www.airbnb.com.vn/rooms/770042313911712187,,Gò Công,13,10.332642653000784,106.77598994225264,REGULAR,,Vườn An Nhiên,entire_home,,,,,False,,/ đêm,1.141,₫1.141.177,4,True,True,,,,,,False,False,True,True,,,,True,,,True,,,True,,,,,True,,,,,,,,,
29084590,https://www.airbnb.com.vn/rooms/29084590,,Thành phố Trà Vinh,11,9.93851,106.27542,REGULAR,,Chỗ ở với người dân địa phương ở nông thôn,private_room,,,,,False,,/ đêm,798.824,₫798.824,4,True,True,True,,True,,,,False,True,,True,,True,,,,,,,True,,,,,,,,True,,,,,,
829342458605933195,https://www.airbnb.com.vn/rooms/829342458605933195,,Chợ Lách,10,10.2606395,106.1350992,REGULAR,,Hoa Mận,private_room,,,,,False,,/ đêm,1.380,₫1.380.000,4,True,True,,,,,,False,False,,,True,,,True,,,True,,True,,,,,,,,,,,True,,,,
677770944636791975,https://www.airbnb.com.vn/rooms/677770944636791975,,Giồng Trôm,9,10.225638798946854,106.41548271496745,REGULAR,,Phòng Deluxe tại Mango Home,private_room,,,,,False,,/ đêm,1.141,₫1.141.177,2,True,,,,,,,False,False,,,True,,True,True,,,True,,,,,,,,,,,True,,True,,True,,
8722722,https://www.airbnb.com.vn/rooms/8722722,,tt. Cầu Kè,7,9.87527,106.06272,REGULAR,,Suonsia Homestay Tra Vinh,private_room,,False,False,,False,,/ đêm,1.483,₫1.483.530,12,True,,True,,,,False,False,False,True,,,,,,,,,True,True,True,,True,,,,,,,,,,,,
37379227,https://www.airbnb.com.vn/rooms/37379227,,thành phố Bến Tre,8,10.24009,106.37782,REGULAR,,Sống với người dân địa phương với Phòng ấm cúng,private_room,,False,True,,False,,/ đêm,889.912,₫889.912,4,True,,,,True,,False,False,False,True,,True,,,,,,,,True,,,,,,,,,,,,,,,
24107686,https://www.airbnb.com.vn/rooms/24107686,,thành phố Bến Tre,8,10.22005,106.35003,REGULAR,,Căn hộ cổ 1 Br  2 khách tại  Bến Tre,private_room,,False,False,,False,,/ đêm,401.495,₫401.495,1,True,,,,,,False,,,True,,True,,,,,,,,True,,,,,,,,True,,,True,True,,,True
41213075,https://www.airbnb.com.vn/rooms/41213075,,H. Vũng Liem,28,10.07595,106.1497,REGULAR,,Thanh Tan Homestay,private_room,,,,,False,,/ đêm,342.353,₫342.353,16,True,True,True,,,,,False,False,True,,,,,,,,,,True,,,True,True,,,,,,,,,,,
38974013,https://www.airbnb.com.vn/rooms/38974013,,Bến Tre,30,10.22718,106.40546,REGULAR,,Sống cùng gia đình bản xứ Nguyệt Quế - Garden View - Phòng 4,private_room,,False,True,,False,,/ đêm,912.942,₫912.942,2,True,True,,,,,,False,False,,,True,,True,,True,,,,True,,,True,True,,,,,,,,,,,
821945777350215661,https://www.airbnb.com.vn/rooms/821945777350215661,,Tân Thạch,30,10.33611528203911,106.37012821688843,REGULAR,,Homestay Đảo Coco Bến Tre,shared_room,,,,,False,,/ đêm,1.711,₫1.711.766,2,True,True,,,,,,False,False,,True,True,,,,,,True,,True,,,,,True,,,,,,,,,,
39794062,https://www.airbnb.com.vn/rooms/39794062,,thành phố Bến Tre,5,10.24807,106.35574,REGULAR,,Nhà nghỉ số 1,private_room,,,,,False,,/ đêm,268.177,₫268.177,2,True,,,,,,,False,False,,,True,,,,,,,True,True,,,,,,,,,,,,,,,
42969049,https://www.airbnb.com.vn/rooms/42969049,,Mỏ Cày,11,10.12812,106.3379,REGULAR,,HOMESTAY Ở BẾN TRE,private_room,,False,True,,False,,/ đêm,1.903,₫1.903.483,4,True,True,,,True,,False,False,False,,,True,,,,,,,,True,,,True,,,,,,,,True,,,,
829344597185934831,https://www.airbnb.com.vn/rooms/829344597185934831,,Chợ Lách,9,10.2606395,106.1350992,REGULAR,,Hoa Cau,private_room,,,,,False,,/ đêm,980.000,₫980.000,2,True,True,,,,,,False,False,,,True,,,True,,,True,,True,,,,,,,,,,,True,,,,
38980874,https://www.airbnb.com.vn/rooms/38980874,,Tiên Long,1,10.26719,106.2114,REGULAR,,Beautiful Palace,private_room,,False,True,,False,,/ đêm,342.353,₫342.353,4,True,,,,True,,False,False,,True,,,,,,,,,,True,True,,,True,,,,,,,,,,,
829348514585151197,https://www.airbnb.com.vn/rooms/829348514585151197,,Chợ Lách,9,10.2606395,106.1350992,REGULAR,,Hoa Dừa,private_room,,,,,False,,/ đêm,980.000,₫980.000,2,True,True,,,,,,False,False,,,True,,,True,,,True,,True,,,,,,,,,,,True,,,,
3563828,https://www.airbnb.com.vn/rooms/3563828,,,16,9.88919,106.05883,REGULAR,,"Sống cùng gia đình bản xứ Suonsia, Cầu Kè, Travinh",private_room,,False,True,,False,,/ đêm,1.686,₫1.686.242,12,True,True,True,,,,,False,False,True,True,,,,,True,,,True,,True,,,,,,,,,,,,,,
27266868,https://www.airbnb.com.vn/rooms/27266868,,Thành phố Trà Vinh,14,9.92331,106.34161,REGULAR,,Nhà cho thuê hàng tháng,private_room,,False,False,,False,,/ đêm,637.918,₫637.918,2,True,True,,,,,,False,False,,,True,,,,True,,,,,,,,,,,,,,,,True,,,
20207083,https://www.airbnb.com.vn/rooms/20207083,"5,0",Tân Thạch,30,10.32776,106.37454,REGULAR,,Donny Vinh B&B (Nhà nghỉ dưỡng),entire_home,5,,,,False,,/ đêm,,,6,True,,True,,True,,,False,False,,,True,,,,,,,,True,,,True,,,,,True,,,,,,,
22234258,https://www.airbnb.com.vn/rooms/22234258,,,19,10.23871,106.31935,REGULAR,,Nhà nghỉ nông trại Coco,private_room,,,,,False,,/ đêm,828.495,₫828.495,2,True,True,True,,,,,False,False,True,,True,,,,,,,,,True,,True,,,,,True,,,,,,,
24985694,https://www.airbnb.com.vn/rooms/24985694,"4,67",Trung Thành Đông,5,10.08989,106.21436,REGULAR,,đặt phòng ngủ nhỏ xinh tại thành phố Vĩnh Long,entire_home,3,,,,False,,/ đêm,428.233,₫428.233,1,,,,,,,,False,False,,,,,,,,,,,,,,,,,,,,,,,,,,
827986936154996294,https://www.airbnb.com.vn/rooms/827986936154996294,,Chợ Lách,10,10.260829530562201,106.13492753862305,REGULAR,,Rooster 1,private_room,,,,,False,,/ đêm,1.060,₫1.060.000,2,True,True,,,,,,False,False,,,True,,,True,,,True,,True,,,,True,,,,,,,True,,,,
677792834880855599,https://www.airbnb.com.vn/rooms/677792834880855599,,Giồng Trôm,12,10.225601619600331,106.41560974487781,REGULAR,,Phòng gia đình tại Mango Home,private_room,,,,,False,,/ đêm,2.168,₫2.168.236,4,True,True,,,,,,False,False,,,True,,True,True,,,True,,,,,,,,,,,,,True,,True,,
10812809,https://www.airbnb.com.vn/rooms/10812809,,tt. Cái Bè,10,10.326433,106.044243,REGULAR,,"Bungalow 2 ""BUOI (POMELO)""",private_room,,,,,False,,/ đêm,551.462,₫551.462,2,True,True,,,True,,,False,,,,True,,,,,,,,,,,,True,,,,,,,,,,,
827887742460136161,https://www.airbnb.com.vn/rooms/827887742460136161,,Chợ Lách,8,10.2674473,106.1316303,REGULAR,,Hoa Sứ,private_room,,,,,False,,/ đêm,1.060,₫1.060.000,2,True,True,,,,,,False,False,,,True,,,True,,,True,True,True,,,,,,,,,,,True,,,,
15811219,https://www.airbnb.com.vn/rooms/15811219,,,13,10.27532,106.15382,REGULAR,,"Đồng bằng sông Cửu Long bên Bến Tre, lối thoát lý tưởng",private_room,,False,True,,False,,/ đêm,,,2,True,True,True,,True,,,False,,,,True,,,,True,,,,True,True,,,,,,,,,,True,,,,
21554185,https://www.airbnb.com.vn/rooms/21554185,,,9,9.8246,106.30194,REGULAR,,phong tro dep tien nghi day du,entire_home,,,,,False,,/ đêm,2.810,₫2.810.426,2,True,True,,,,,,False,False,True,,True,,,,,,,,True,True,,,,,,,,,,True,True,,,
21704617,https://www.airbnb.com.vn/rooms/21704617,,,8,10.10728,106.4529,REGULAR,,cho thuê phong tro,entire_home,,,,,False,,/ đêm,2.810,₫2.810.426,2,,,,,,,,False,False,,,,,,,,,,,,,,,,,,,,,,,,,,
25556926,https://www.airbnb.com.vn/rooms/25556926,,Ba Tri,30,10.08538,106.66425,REGULAR,,Làng Mai Nha Xua,entire_home,,,,,False,,/ đêm,1.597,₫1.597.648,6,True,True,,True,True,,,False,False,True,,,True,True,,,,,,True,,,,,,,,,,,,,,,
829351241194788941,https://www.airbnb.com.vn/rooms/829351241194788941,,Chợ Lách,9,10.2606395,106.1350992,REGULAR,,Hoa Mơ,private_room,,,,,False,,/ đêm,980.000,₫980.000,2,True,True,,,,,,False,False,,,True,,,True,,,True,,True,,,,,,,,,,,True,,,,
827931706536148072,https://www.airbnb.com.vn/rooms/827931706536148072,,Chợ Lách,9,10.2606395,106.1350992,REGULAR,,Bằng Lăng,private_room,,,,,False,,/ đêm,1.060,₫1.060.000,2,True,True,,,,,,False,False,,,True,,,True,,,True,True,True,,,,,,,,,,,True,,,,
23662069,https://www.airbnb.com.vn/rooms/23662069,"5,0",thành phố Bến Tre,6,10.23326,106.37175,REGULAR,,Phòng hiện đại,private_room,7,False,False,5,False,,/ đêm,776.205,₫776.205,2,True,,,,,,False,False,,,,True,,,,,,,,True,,,,,,,,,,,,True,,,
19721317,https://www.airbnb.com.vn/rooms/19721317,,Hòa Nghĩa,30,10.26528,106.14188,REGULAR,,Jardin Du Mekong Homestay - Twin 07 (trọn gói),private_room,,False,False,,False,,/ đêm,1.010,₫1.010.284,2,True,,True,,True,,,False,False,True,,,,,,True,,,,,True,,True,,,,,,,,,,,,
829329000845014489,https://www.airbnb.com.vn/rooms/829329000845014489,,Chợ Lách,10,10.2606395,106.1350992,REGULAR,,Hoa Bưởi,private_room,,,,,False,,/ đêm,1.380,₫1.380.000,4,True,True,,,,,,False,False,,,True,,,True,,,True,,True,,,,,,,,,,,True,,,,
21597148,https://www.airbnb.com.vn/rooms/21597148,,Trà Vinh,8,9.95026,106.34912,REGULAR,,Cho Thuê Phòng Trọ Đường Dương Văn Dương Tân Phú,entire_home,,,,,False,,/ đêm,2.810,₫2.810.426,2,,,,,,,,False,False,,,,,,,,,,,,,,,,,,,,,,,,,,
38973721,https://www.airbnb.com.vn/rooms/38973721,,Bến Tre,30,10.2272,106.40543,REGULAR,,Sống cùng gia đình bản xứ Nguyệt Quế - Garden View - Phòng 3,private_room,,,,,False,,/ đêm,912.942,₫912.942,2,True,True,,,,,,False,False,,,True,,True,,,,,,True,,,True,True,,,,,,True,,,,,
22407003,https://www.airbnb.com.vn/rooms/22407003,"5,0",Thành phố Trà Vinh,7,9.91922,106.3307,REGULAR,,Thiên đường của B,private_room,3,,,,False,,/ đêm,,,10,True,True,True,,,,,False,,True,,True,,True,,,,,,True,True,,,,,,,True,,,,,,,
38972748,https://www.airbnb.com.vn/rooms/38972748,,Bến Tre,30,10.22717,106.40547,REGULAR,,Sống cùng gia đình bản xứ Nguyệt Quế - Garden View - Phòng 2,private_room,,False,True,,False,,/ đêm,798.824,₫798.824,2,True,True,,,,,,False,False,,,True,,True,,True,,,,True,,,True,True,,,,,,,,,,,
30157599,https://www.airbnb.com.vn/rooms/30157599,,Trà Vinh,9,9.93885,106.27425,REGULAR,,Thư giãn tại Green place yên bình,private_room,,,,,False,,/ đêm,1.284,₫1.284.763,6,True,True,True,,True,,,,False,True,,True,,,,,,,,,True,,,True,,,,,,,,,,,
827997073326916171,https://www.airbnb.com.vn/rooms/827997073326916171,,Chợ Lách,12,10.2606395,106.1350992,REGULAR,,Rooster 3,private_room,,,,,False,,/ đêm,1.060,₫1.060.000,2,True,True,,,,,,False,False,,,True,,,True,,,True,,True,,,,True,,,,,,,True,,,,
23985494,https://www.airbnb.com.vn/rooms/23985494,,thành phố Bến Tre,6,10.23831,106.39436,REGULAR,,Hỏi chợ Bến Tre đẹp nhất thế giới!,entire_home,,,,,False,,/ đêm,,,2,True,True,,,,,,,,True,,True,,,,,,,,True,True,,,,,,,,,,,True,,,
28149804,https://www.airbnb.com.vn/rooms/28149804,"4,33",Càng Long,8,9.93869,106.2755,REGULAR,,Nhà khách Vilabasi Mekong - phòng 2,private_room,12,,,,False,,/ đêm,481.796,₫481.796,2,True,True,,True,True,,,,False,True,,True,,True,,,,,,,True,,,,,,,,True,,,,,,
827995174328597843,https://www.airbnb.com.vn/rooms/827995174328597843,,Chợ Lách,10,10.2606395,106.1350992,REGULAR,,Rooster 2,private_room,,,,,False,,/ đêm,1.060,₫1.060.000,2,True,True,,,,,,False,False,,,True,,,True,,,True,,True,,,,True,,,,,,,True,,,,
21967340,https://www.airbnb.com.vn/rooms/21967340,,,7,10.14406,106.46794,REGULAR,,River View 177 m 2 4 phòng ngủ nhà đẹp.,entire_home,,,,,False,,/ đêm,2.738,₫2.738.825,5,True,True,True,,,,,False,,True,,,,,,,,,True,True,True,,,,,,,True,,,True,,,,
40044929,https://www.airbnb.com.vn/rooms/40044929,,Bến Tre,5,10.24231,106.37628,REGULAR,,Bến Tre|| Nhà,entire_home,,,,,False,,/ đêm,910.037,₫910.037,4,True,,True,,,,,False,False,True,,True,,,,,,,,True,True,,,,,,,,,,,,,,
22132790,https://www.airbnb.com.vn/rooms/22132790,,Bến Tre,6,10.23709,106.35622,REGULAR,,C 102 Khu dân cư cao tầng 102 Trường Chinh,private_room,,False,False,,False,,/ đêm,2.810,₫2.810.426,4,True,True,True,,,,False,False,False,True,,,,,,,,,True,True,,,,,,,,,,,True,,,,
19704181,https://www.airbnb.com.vn/rooms/19704181,,Hòa Nghĩa,30,10.26386,106.14179,REGULAR,,Jardin Du Mekong Homestay - DB 04 (Full package),private_room,,False,False,,False,,/ đêm,959.770,₫959.770,2,True,,True,,True,,,False,False,True,,,,,,True,,,,,True,,True,,,,,,,,,,,,
26790619,https://www.airbnb.com.vn/rooms/26790619,,Trà Vinh,7,9.91272,106.31006,REGULAR,,Nhà nghỉ Minh Ngọc,entire_home,,,,,False,,/ đêm,1.932,₫1.932.232,4,True,,,,True,,,False,False,,,,,,,,,,,True,True,,,,,,,True,,,,,,,
40597359,https://www.airbnb.com.vn/rooms/40597359,,Bến Tre,4,10.26753,106.37064,REGULAR,,Tony 's Coe_Center of everything,entire_home,,,,,False,,/ đêm,570.589,₫570.589,4,,True,,,,,,False,False,True,,,,,,,,,,,True,,,,,,,,,,,,,,
21553975,https://www.airbnb.com.vn/rooms/21553975,,Bến Tre,8,10.24277,106.38019,REGULAR,,cho thue phong dep sang trong,entire_home,,,,,False,,/ đêm,2.810,₫2.810.426,2,True,True,,,,,,False,False,True,,True,,,,,,,,True,True,,,,,,,,,,True,True,,,
19702353,https://www.airbnb.com.vn/rooms/19702353,,Hòa Nghĩa,30,10.266,106.14077,REGULAR,,Jardin Du Mekong Homestay - DB 02 (trọn gói),private_room,,False,False,,False,,/ đêm,1.010,₫1.010.284,2,True,,True,,True,,,False,False,True,,,,,,True,,,,,True,,True,,,,,,,,,,,,
19793093,https://www.airbnb.com.vn/rooms/19793093,,,10,10.30502,106.74915,REGULAR,,Tien Giang Home Bui Thai,entire_home,,,,,False,,/ đêm,1.338,₫1.338.284,6,True,True,,,True,,,,,True,,True,,,,,,,,True,True,True,,,,,,True,,,,True,,,
21823521,https://www.airbnb.com.vn/rooms/21823521,,Thành phố Trà Vinh,6,9.94006,106.34736,REGULAR,,Nha dep tra vinh %%%,entire_home,,,,,False,,/ đêm,2.810,₫2.810.419,2,True,True,True,,,,,False,False,True,,,,,,,,,,True,True,,,,,,,True,,,True,,,,
19720818,https://www.airbnb.com.vn/rooms/19720818,,Hòa Nghĩa,30,10.26515,106.14254,REGULAR,,Jardin Du Mekong Homestay - Song Tử 06 (trọn gói),private_room,,False,False,,False,,/ đêm,1.010,₫1.010.284,2,True,,True,,True,,,False,False,True,,,,,,True,,,,,True,,True,,,,,,,,,,,,
21569513,https://www.airbnb.com.vn/rooms/21569513,,,10,10.29418,106.34061,REGULAR,,"Xin chào, tôi là Minh. Chào mừng bạn đến!",entire_home,,,,,False,,/ đêm,1.338,₫1.338.278,3,,,,,,,,False,False,,,,,,,,,,,,,,,,,,,,,,,,,,
10791281,https://www.airbnb.com.vn/rooms/10791281,,Cho Gao,18,10.31437,106.46434,REGULAR,,Sống xa xỉ ở Đồng bằng sông Cửu Long,private_room,,False,False,,False,,/ đêm,806.274,₫806.274,2,True,True,,,,,False,False,False,True,,,,,,,,,True,True,True,,,,,,,,,,True,,,,
19559314,https://www.airbnb.com.vn/rooms/19559314,,Hòa Nghĩa,30,10.26454,106.14248,REGULAR,,Sống cùng gia đình bản xứ Jardin Du Mekong - DB 01 (trọn gói),private_room,,False,False,,False,,/ đêm,959.770,₫959.770,2,True,,True,True,True,,,False,False,,,,,,,True,,,,,True,,True,,,,,True,,,,,,,
10813335,https://www.airbnb.com.vn/rooms/10813335,,tt. Cái Bè,9,10.32798,106.0404,REGULAR,,"Bungalow 3 ""ĐÀO (ĐÀO)""",private_room,,False,True,,False,,/ đêm,2.168,₫2.168.236,2,True,True,,,True,,False,,False,,,True,,,,,,,,,,,,True,,,,,,,,,,,
19705309,https://www.airbnb.com.vn/rooms/19705309,,Hòa Nghĩa,30,10.26392,106.14244,REGULAR,,Sống cùng gia đình bản xứ Jardin Du Mekong - Twin 05 (trọn gói),private_room,,False,False,,False,,/ đêm,959.770,₫959.770,2,True,,True,,True,,,False,False,True,,,,,,True,,,,,True,,True,,,,,,,,,,,,
12592923,https://www.airbnb.com.vn/rooms/12592923,,,30,9.79919,106.20381,REGULAR,,Phòng Lord tại Suonsia Homestay,private_room,,False,True,,False,,/ đêm,1.525,₫1.525.672,2,True,,True,,True,,False,False,False,,,,,,,,,,,True,,,True,,,,,,,,,,,,
