room_id,url,city,contextualPicturesCount,lat,long,listingObjType,pdpUrlType,name,roomTypeCategory,canInstantBook,weeklyPriceFactor,structuredStayDisplayPrice,price,price_full,maxGuestCapacity,SYSTEM_COOKING_BASICS,SYSTEM_WI_FI,SYSTEM_WORKSPACE,SYSTEM_MAPS_CAR_RENTAL,SYSTEM_POOL,SYSTEM_JACUZZI,SYSTEM_PETS,SYSTEM_SURVEILLANCE,SYSTEM_NO_DETECTOR_CO2,SYSTEM_NO_DETECTOR_SMOKE,SYSTEM_FLOWER,SYSTEM_MAPS_RESORT,SYSTEM_BEACH,rating,reviewCount,SYSTEM_TV,SYSTEM_WASHER,SYSTEM_SNOWFLAKE,isSuperHost,isVerified,yearHosting,SYSTEM_LOCK_ON_DOOR,SYSTEM_PATIO_BALCONY,SYSTEM_SAUNA,SYSTEM_DRYER,SYSTEM_ELEVATOR,SYSTEM_VIEW_OCEAN,SYSTEM_BOAT_SAIL,SYSTEM_EV_CHARGER,SYSTEM_VIEW_MOUNTAIN,SYSTEM_LUGGAGE_DROP,SYSTEM_HAIRDRYER,SYSTEM_REFRIGERATOR,SYSTEM_BATHTUB,SYSTEM_NO_LOCK_ON_DOOR,SYSTEM_VIEW_CITY,SYSTEM_CRIB,SYSTEM_SMOKING_ALLOWED,SYSTEM_CALENDAR,SYSTEM_FIREPLACE,SYSTEM_FIREPIT,SYSTEM_BREAKFAST,SYSTEM_SKI
857188854942590775,https://www.airbnb.com.vn/rooms/857188854942590775,Phu Quoc,30,10.26787,103.93915,REGULAR,,Biệt thự LỚN cho gia đình LỚN có vườn hồ bơi riêng,entire_home,False,,/ đêm,1.825,₫1.825.883,8.0,True,True,True,True,True,True,True,True,False,False,,,,,,,,,,,,,,,,,,,,,,,,,,,,,,,,,
869439146591551697,https://www.airbnb.com.vn/rooms/869439146591551697,Phu Quoc,30,10.1361,103.97652,REGULAR,,Sandy villas Phú quốc,entire_home,False,,/ đêm,2.921,₫2.921.413,16.0,True,True,True,True,True,,,True,False,,True,True,True,,,,,,,,,,,,,,,,,,,,,,,,,,,,,,
709271695390232074,https://www.airbnb.com.vn/rooms/709271695390232074,Thành phố Phú Quốc,30,10.13264,103.98253,REGULAR,,AN Sonasea Villas,entire_home,False,,/ đêm,3.318,₫3.318.961,11.0,True,True,,True,True,,True,True,False,,,,True,"5,0",11,True,True,,,,,,,,,,,,,,,,,,,,,,,,,,
882561712923469558,https://www.airbnb.com.vn/rooms/882561712923469558,Phu Quoc,30,10.027662942214114,104.00916001440078,REGULAR,,2BR luxury Apt at Sunset town,entire_home,False,,/ đêm,,,4.0,True,True,True,True,True,,,True,,,,,,,,True,True,True,,,,,,,,,,,,,,,,,,,,,,,,,
819452353874813376,https://www.airbnb.com.vn/rooms/819452353874813376,Thành phố Phú Quốc,25,10.18499832146594,103.96962683647871,REPRESENTATIVE,,Chỗ nghỉ phục vụ bữa sáng với YOGA và lối ra bãi biển MIỄN PHÍ,private_room,False,,/ đêm,950.000,₫950.000,2.0,,True,True,True,True,,,True,False,False,,,True,"4,65",20,,,True,True,True,3,True,,,,,,,,,,,,,,,,,,,,,
890479481256170765,https://www.airbnb.com.vn/rooms/890479481256170765,Thành phố Phú Quốc,12,10.26945,103.93747,REGULAR,,Bungalow with air conditioning,entire_home,False,,/ đêm,,,2.0,,True,True,True,True,,,,False,False,True,,True,,,,,True,,,,,True,,,,,,,,,,,,,,,,,,,,
38949477,https://www.airbnb.com.vn/rooms/38949477,Thành phố Phú Quốc,24,10.11255,103.98793,REGULAR,,H&B Villas Phú Quốc - 3 phòng ngủ,entire_home,False,,/ đêm,,,8.0,True,True,,True,True,,True,,False,False,,,,"4,91",12,True,True,,,,,,,True,,,,,,,,,,,,,,,,,,,
31198775,https://www.airbnb.com.vn/rooms/31198775,Phú Quốc,30,10.24972,104.08039,REPRESENTATIVE,,"Lotus Home, ngôi nhà mặt trời mọc giữa biển và núi",entire_home,False,,/ đêm,1.320,₫1.320.000,4.0,True,True,True,True,,True,,,,,,,True,"4,93",44,True,True,True,,,,,,,True,,,,,,,,,,,,,,,,,,
868559642321329026,https://www.airbnb.com.vn/rooms/868559642321329026,Thành phố Phú Quốc,19,10.09456,104.01494,REPRESENTATIVE,,2 bed near Beach w free Breakfast n Airport ride,private_room,False,,/ đêm,,,3.0,True,True,,True,,,,True,False,,,,True,,,True,True,,,,,,,,True,True,,,,,,,,,,,,,,,,,
17112132,https://www.airbnb.com.vn/rooms/17112132,Thành phố Phú Quốc,19,10.18361,103.97192,REGULAR,,Le Forest Resort - Bungalow Gia Đình sang trọng,entire_home,False,,/ đêm,2.141,₫2.141.261,6.0,,True,True,True,True,,True,,False,,True,,,"4,89",19,True,,True,,,,,,,True,,,,,,,,,,,,,,,,,,
30256115,https://www.airbnb.com.vn/rooms/30256115,Phú Quốc,29,10.25849,104.0785,REGULAR,,The Pier Phu Quoc Resort,private_room,False,,/ đêm,,,16.0,,True,,True,True,,,True,False,False,True,,,,,True,True,,,,,,,,,,True,,,,,,,,,,,,,,,,
43690578,https://www.airbnb.com.vn/rooms/43690578,Thành phố Phú Quốc,23,10.22713,103.97486,REGULAR,,Cách nhau 2 phòng ngủ tại thị trấn Dương Đông - tối đa 8 khách,entire_home,False,,/ đêm,,,8.0,True,True,,True,,,,,False,False,True,,,"4,8",15,True,True,True,,,,,,,True,,,,,,,,,,,,,,,,,,
881041829589491595,https://www.airbnb.com.vn/rooms/881041829589491595,Phu Quoc,17,10.11985,103.98273,REGULAR,,Larosa Phu Quoc Island Longbeach,private_room,False,,/ đêm,,,2.0,True,True,True,True,True,,,,,,,,True,,,True,True,,,,,,,,,,,True,True,,,,,,,,,,,,,,
37783452,https://www.airbnb.com.vn/rooms/37783452,Phú Quốc,30,10.22319,104.07363,REGULAR,,Bungalow bãi biển Cay Sao với khung cảnh biển,entire_home,False,,/ đêm,968.859,₫968.859,2.0,,True,True,True,True,,,,False,False,True,,True,"4,76",29,,,,,,,,,,True,,,,,True,,,,,,,,,,,,,
882567830250774355,https://www.airbnb.com.vn/rooms/882567830250774355,Phu Quoc,30,10.02741579829011,104.00955838564452,REGULAR,,01 Bedroom apt with Kiss bridge view,entire_home,False,,/ đêm,,,2.0,True,True,True,True,True,,,True,,,,,,,,True,True,True,,,,,,,,,,,,,,,,,,,,,,,,,
35749006,https://www.airbnb.com.vn/rooms/35749006,Thành phố Phú Quốc,30,10.23209,103.95219,REGULAR,,KaoCat Sea Villa  w/3BR 2BA AC 3km đến DT & NightMK,entire_home,False,,/ đêm,4.228,₫4.228.002,12.0,True,True,True,True,,,,True,False,False,,,True,"4,73",22,,,,,,,,,,,,True,,,,,,,,,,,,,,,,
783639596963511044,https://www.airbnb.com.vn/rooms/783639596963511044,Thành phố Phú Quốc,30,10.244051817029716,104.07834186350692,REGULAR,,Ông Hương House (Nhà trên núi),entire_home,False,,/ đêm,2.290,₫2.290.825,5.0,True,True,True,True,,,,True,False,False,,,True,"5,0",5,,,,,,,,,,,,True,,,True,,,,,,,,,,,,,
872881823286883425,https://www.airbnb.com.vn/rooms/872881823286883425,Thành phố Phú Quốc,16,10.239810423066276,103.96122619583268,REGULAR,,HOUZZ stay - Phù hợp với gia đình có trẻ nhỏ.,entire_home,False,,/ đêm,,,2.0,True,True,True,True,True,,True,,False,False,True,,,,,,True,,,,,,,,,,,,,,,,,,,,,,,,,,
819515224386841643,https://www.airbnb.com.vn/rooms/819515224386841643,Thành phố Phú Quốc,28,10.1841,103.97013,REPRESENTATIVE,,Bungalow w lối RA BÃI BIỂN và YOGA,private_room,False,,/ đêm,950.000,₫950.000,2.0,,True,True,True,True,,,True,False,False,,,True,"5,0",7,,,True,,,,,,,,,,,,,True,,,,,,,,,,,,
38027665,https://www.airbnb.com.vn/rooms/38027665,Thành phố Phú Quốc,30,10.22306,104.07368,REGULAR,,Bungalow bãi biển Cay Sao với khung cảnh biển tuyệt vời,entire_home,False,,/ đêm,1.130,₫1.130.906,2.0,True,True,True,True,True,,,,False,False,,,True,"4,91",65,,,True,,,,,True,,,,,,,,,,,,,,,,,,,,
807384940291607359,https://www.airbnb.com.vn/rooms/807384940291607359,Thành phố Phú Quốc,30,10.2496152,104.0798013,REGULAR,,Ong Vinh House ( Cần Thơ 5),entire_home,False,,/ đêm,,,4.0,True,True,True,True,,,,,False,False,,,True,"5,0",6,True,,,,,,,,,,,True,,,,,,,,,,,,,,,,
728415094072140426,https://www.airbnb.com.vn/rooms/728415094072140426,Phu Quoc,9,10.25906,103.93841,REGULAR,,Nhà khách 1 phòng ngủ ấm cúng với giường cỡ King mềm mại gần bãi biển,entire_home,False,,/ đêm,,,2.0,True,True,,,,,True,True,False,,True,,True,"4,91",11,,,True,,,,,True,,,,,,,,,True,,,,,,,,,,,
696260273723525418,https://www.airbnb.com.vn/rooms/696260273723525418,Phu Quoc,24,10.267252739355605,103.93847933976666,REGULAR,,Biệt thự HỒ bơi 2 phòng ngủ riêng,entire_home,False,,/ đêm,,,6.0,True,True,True,True,True,True,,True,False,False,True,,,"5,0",7,,,,,,,,,,,,,,,,,,,,,,,,,,,,
802567393089035614,https://www.airbnb.com.vn/rooms/802567393089035614,Thành phố Phú Quốc,16,10.22032,104.07142,REGULAR,,Nhà khách Mermaid - bãi biển riêng - lối vào sân bay,entire_home,False,,/ đêm,1.605,₫1.605.157,2.0,True,True,True,True,,,,,,,,,True,"5,0",6,,True,True,,,,,True,,,,True,,,,,,,,,,,,,,,,
868426295810546602,https://www.airbnb.com.vn/rooms/868426295810546602,Thành phố Phú Quốc,8,10.1253417,103.9956269,REGULAR,,"Lavender Homestay - 3 BR, 10 min walk to beach",entire_home,False,,/ đêm,,,6.0,True,True,,True,,,True,,False,False,True,,,,,True,True,True,,,,,,,,,,,,,,,,,,,,,,,,,
761052587597031512,https://www.airbnb.com.vn/rooms/761052587597031512,Thành phố Phú Quốc,18,10.259829914277729,103.93778029829264,REGULAR,,"Nhà 2 phòng ngủ rộng rãi với nhà bếp, phòng khách, gần bãi biển",entire_home,False,,/ đêm,,,4.0,True,True,,,,,True,True,False,False,,,True,"4,45",11,True,,True,,,,,True,,,,,,,,,,,,,,,,,,,,
777056685355471394,https://www.airbnb.com.vn/rooms/777056685355471394,Thành phố Phú Quốc,14,10.2435,104.07717,REGULAR,,Green Corner House ở East Coast,entire_home,False,,/ đêm,,,2.0,True,True,,True,,,True,,False,False,,,,"5,0",11,,True,True,,,,,,,,,True,,,True,,,,,,,,,,,,,
815902321427595714,https://www.airbnb.com.vn/rooms/815902321427595714,Thành phố Phú Quốc,23,10.13452,103.98099,REGULAR,,Biệt thự vui vẻ Phú Quốc,entire_home,False,,/ đêm,,,14.0,True,True,True,True,True,,,True,False,,True,True,True,,,,,,,,,,,,,,,,,,,,,,,,,,,,,,
819915043547692005,https://www.airbnb.com.vn/rooms/819915043547692005,Thành phố Phú Quốc,13,10.21823,103.96032,REGULAR,,Homestay ngay Chợ Đêm Dương Đông,entire_home,False,,/ đêm,4.564,₫4.564.708,12.0,True,True,True,,,,,,,,,,,,,True,True,True,,,,,,,,,,,,,,,,,,,,,,,,,
884002694446103826,https://www.airbnb.com.vn/rooms/884002694446103826,Thành phố Phú Quốc,17,10.03755,104.02681,REGULAR,,Khách sạn rẻ nhất Phú Quốc,private_room,False,,/ đêm,,,2.0,True,True,True,True,,,True,True,False,,,,True,,,True,True,,,,,,,,,,,,,,,,,,,,,,,,,,
807867963286367438,https://www.airbnb.com.vn/rooms/807867963286367438,Phu Quoc,27,10.11423,103.98136,REGULAR,,Khách sạn Marina Seaside II,private_room,False,,/ đêm,,,2.0,,True,,True,True,,,True,False,,,,True,"4,75",4,True,,True,,,,,True,,,True,,,,,,,,,,,,,,,,,
891179769232230768,https://www.airbnb.com.vn/rooms/891179769232230768,Phu Quoc,30,10.13229,103.98335,REGULAR,,Green house Phu Quoc,entire_home,False,,/ đêm,,,8.0,True,True,,True,,,,,False,False,,,True,,,True,True,True,,,,,,,,,,,,,,,,,,,,,,,,,
44867730,https://www.airbnb.com.vn/rooms/44867730,Thành phố Phú Quốc,29,10.12445,103.99451,REGULAR,,Nhà lớn tại địa phương với 3 phòng ngủ 4BA AC 3 km đến DT & NightMK,entire_home,False,,/ đêm,,,15.0,True,True,,True,,True,True,,False,False,,,,,,True,True,,,,,,,,True,,,,,,,,,,,,,,,,,,
891008130503829809,https://www.airbnb.com.vn/rooms/891008130503829809,Phu Quoc,11,10.3285,103.86377,REGULAR,,Family Room Green Home,private_room,False,,/ đêm,,,6.0,True,True,True,True,,,,True,False,False,True,True,True,,,,,,,,,,,,,,,,,,,,,,,,,,,,,,
39678206,https://www.airbnb.com.vn/rooms/39678206,Thành phố Rạch Giá,6,10.01322,105.07183,REGULAR,,Khách sạn Mỹ Phương - Phòng số107 1st Fl - Giường đôi,private_room,False,,/ đêm,270.000,₫270.000,2.0,True,True,True,True,,,,True,False,,,,,"4,71",7,True,True,True,,,,,,,,,,,,,,,True,,,,,,,,,,
787489583089734235,https://www.airbnb.com.vn/rooms/787489583089734235,Thành phố Phú Quốc,30,10.19527,103.9676,REGULAR,,Dream 's House Phú Quốc,private_room,False,,/ đêm,582.151,₫582.151,16.0,,True,,True,True,,,True,False,False,,,True,"4,88",8,True,True,True,,,,,,,,,,,,,,,,,,,,,,,,,
758272224309346724,https://www.airbnb.com.vn/rooms/758272224309346724,Thành phố Phú Quốc,17,10.2212443,104.0729348,REPRESENTATIVE,,Premier On The Sea Chalet,entire_home,False,,/ đêm,3.150,₫3.150.000,2.0,,True,True,True,True,,,True,False,,,,True,"3,4",5,True,True,,,,,,,,,,True,,,,,,,,,,,,,,,,
770886108355761941,https://www.airbnb.com.vn/rooms/770886108355761941,Phu Quoc,30,10.03785,104.03042,REGULAR,,"Khách sạn 3 sao giá Rẻ, có bếp nấu, gần bãi tắm",private_room,False,,/ đêm,,,2.0,True,True,,True,,,True,True,False,,,True,True,"3,8",5,True,,,,,,,,,,,,,,True,,,,,,,,,,,,,
860657610602585571,https://www.airbnb.com.vn/rooms/860657610602585571,Thành phố Phú Quốc,18,10.26728,103.93862,REGULAR,,Cuộc sống trên đảo - bungalow sinh thái đáng yêu có quạt,private_room,False,,/ đêm,330.941,₫330.941,2.0,True,True,True,True,True,,,True,False,False,True,,True,"5,0",3,,,,,,,,,,,,,,,,,,,,,,,,,,,,
9262083,https://www.airbnb.com.vn/rooms/9262083,Phu Quoc,30,10.23547,103.95151,REGULAR,,TS BÃI BIỂN NHÀ 2 - Sống trên bãi biển,entire_home,False,,/ đêm,2.328,₫2.328.616,6.0,True,True,,,,,,,False,False,True,,True,"4,69",170,True,True,True,,,,,True,,,,,,,,,,,,,,,,,,,,
846362876365810411,https://www.airbnb.com.vn/rooms/846362876365810411,Phu Quoc,30,10.26758,103.93739,REGULAR,,Biệt thự 2 phòng ngủ sang trọng với hồ bơi và vườn riêng,entire_home,False,,/ đêm,,,6.0,True,True,True,True,True,True,True,True,False,False,,,,"5,0",5,,,,,,,,,,,,,,,,,,,,,,,,,,,,
814163168858693710,https://www.airbnb.com.vn/rooms/814163168858693710,Thành phố Phú Quốc,30,10.29303,103.91453,REGULAR,,Eco Lagoon,entire_home,False,,/ đêm,,,6.0,True,True,True,True,,,,True,False,False,,,True,"5,0",4,,,,,,,,,,,,True,,,,,,,,,,,,,,,,
783642763222890723,https://www.airbnb.com.vn/rooms/783642763222890723,Thành phố Phú Quốc,30,10.123784604425852,104.03598781050545,REGULAR,,Mountain House Phú Quốc,entire_home,False,,/ đêm,1.490,₫1.490.589,5.0,True,True,True,True,,,True,True,False,False,,,True,"4,71",7,True,,,,,,,,,,,,,,,,,,,,,,,,,,,
887363819750594545,https://www.airbnb.com.vn/rooms/887363819750594545,Thành phố Phú Quốc,11,10.268170870701601,103.93821166010801,REGULAR,,Simple Cottage with Fan and small kitchen,entire_home,False,,/ đêm,,,4.0,True,True,True,True,True,True,,,False,False,,,True,,,,,,,,,,,,,,,,,,,,,True,,,,,,,,,
42439629,https://www.airbnb.com.vn/rooms/42439629,Thành phố Phú Quốc,25,10.2211,104.07384,REGULAR,,"Biệt thự biển Mũi Rạng đông, Aurora Pt, Phú quốc",entire_home,False,,/ đêm,1.605,₫1.605.934,3.0,True,True,True,True,,,,,False,,True,,True,"5,0",11,True,True,,,,,,,,,,,True,,,,,,,,,,,,,,,
871973700464707596,https://www.airbnb.com.vn/rooms/871973700464707596,Phu Quoc,26,10.03509,104.02864,REGULAR,,"Hot, room cheapest Phu Quoc",private_room,False,,/ đêm,,,2.0,True,True,True,True,,,,True,False,,,,True,,,True,True,True,,,,,,,,,,,,,,,,,,,,,,,,,
43532360,https://www.airbnb.com.vn/rooms/43532360,Thành phố Phú Quốc,30,10.18315,104.04994,REGULAR,,Nhà trên bãi biển Aurora - Không có phòng bếp với tầm nhìn ra biển,private_room,False,,/ đêm,479.294,₫479.294,2.0,,True,,True,,,,,False,False,,,,"4,8",10,True,True,True,False,True,3,True,,,True,,True,,,,,,,,,,,,,,,,
890181268576140198,https://www.airbnb.com.vn/rooms/890181268576140198,Mỹ Đình 1,13,10.3053,105.27775,REGULAR,,Service apartment for rent VSL,entire_home,False,,/ đêm,,,4.0,True,True,True,,,,,True,False,False,,,,,,True,True,True,,,,,,,,,,,,,,,,,,,,,,,,,
31304196,https://www.airbnb.com.vn/rooms/31304196,"Duong Dong Town, Phu Quoc",13,10.21438,103.96337,REGULAR,,Nhà gia đình 5 phòng ngủ,private_room,False,,/ đêm,4.678,₫4.678.826,10.0,True,True,,True,True,True,,,False,False,,,,"5,0",26,True,,True,True,True,6,,,,,,,,,,,,,,False,,,,,,,,
812886484836916237,https://www.airbnb.com.vn/rooms/812886484836916237,Phu Quoc,27,10.1153903,103.98173111111112,REGULAR,,Khách sạn Marina Seaside Phú Quốc II,private_room,False,,/ đêm,508.542,₫508.542,2.0,,True,,True,True,,,True,False,,,True,True,"5,0",5,True,,True,,,,,,,,,,,,,,,,,,,,,,,,,
864183616621957196,https://www.airbnb.com.vn/rooms/864183616621957196,Thành phố Phú Quốc,11,10.26202,103.94179,REGULAR,,Cho thuê bungalow gỗ có sân vườn,entire_home,False,,/ đêm,,,3.0,True,True,True,True,,,True,True,False,,,,True,,,,,True,,,,,,,,,,,,,,True,,,,,,,,,,,
883058696585061262,https://www.airbnb.com.vn/rooms/883058696585061262,Phu Quoc,30,10.02588,104.00714,REGULAR,,Hotel Room in the City Center S1,private_room,False,,/ đêm,,,2.0,True,True,True,True,,,,,False,,,,True,,,True,True,True,,,,,,,,,True,,,,,,,,,,,,,,,,
23621309,https://www.airbnb.com.vn/rooms/23621309,,21,10.18469,103.97477,REGULAR,,Le Forest Resort - Phòng đôi rộng có bếp,entire_home,False,,/ đêm,911.800,₫911.800,2.0,True,True,True,True,True,,True,,False,,True,,,"4,73",15,True,,True,,,,,,,,,,,,,,,,,,,,,,,,,
780185199322726746,https://www.airbnb.com.vn/rooms/780185199322726746,Phu Quoc,30,10.05934011250928,104.01007136327647,REGULAR,,Ưu đãi lớn! Nhà riêng ấm cúng cách bãi biển 5 phút,entire_home,False,,/ đêm,,,6.0,True,True,True,True,,True,True,,False,False,True,,True,"4,88",8,,,,,,,,,,,,,,,,,,,,,,,,,,,,
851127291573460016,https://www.airbnb.com.vn/rooms/851127291573460016,Thành phố Phú Quốc,30,10.1336,103.98063,REGULAR,,biệt thự vinbeach Phú Quốc,entire_home,False,,/ đêm,3.163,₫3.163.343,14.0,True,True,True,True,True,,,True,False,,True,True,True,,,,,,,,,,,,,,,,,,,,,,,,,,,,,,
24255822,https://www.airbnb.com.vn/rooms/24255822,Thành phố Phú Quốc,30,10.18514,103.97569,REGULAR,,Le Forest Resort - Pool-View Family Suite,entire_home,False,,/ đêm,1.825,₫1.825.883,6.0,,True,True,True,True,,True,,False,,True,True,,"4,8",44,True,,True,,,,,,,,,,,,,,,,,,,,,,,,,
787200318945156246,https://www.airbnb.com.vn/rooms/787200318945156246,Thành phố Phú Quốc,14,10.035814330784365,104.02697581797838,REGULAR,,"HOT, phòng khách sạn rẻ nhất ở Phú Quốc",private_room,False,,/ đêm,,,2.0,True,True,True,True,,,True,True,False,,,,True,,,True,True,,,,,,,,,,,,,,,,,,,,,,,,,,
829555794548773858,https://www.airbnb.com.vn/rooms/829555794548773858,Thành phố Phú Quốc,30,10.13249,103.98145,REGULAR,,Evergreen villas Phú Quốc,entire_home,False,,/ đêm,3.642,₫3.642.637,15.0,True,True,True,True,True,True,,,False,,True,,True,,,,,,,,,,,,,,,,,,,,,,,,,,,,,,
19105369,https://www.airbnb.com.vn/rooms/19105369,Thành phố Phú Quốc,30,10.22772,103.95544,REGULAR,,Nhà trên bãi biển Larina,entire_home,False,,/ đêm,1.180,₫1.180.374,2.0,True,True,,True,,,True,,False,False,,,True,"4,8",155,True,True,True,,,,,,,,,,,,,,,,,,,,,,,,,
861365443714643103,https://www.airbnb.com.vn/rooms/861365443714643103,Thành phố Phú Quốc,9,10.20045,103.96492,REGULAR,,Bungalow w Pool Phu Quoc Center,private_room,False,,/ đêm,684.706,₫684.706,2.0,True,True,True,,True,,,True,False,False,True,,,,,True,,,False,True,,,,,,,,,,,,,,,False,,,,,,,,
42946833,https://www.airbnb.com.vn/rooms/42946833,Thành phố Phú Quốc,30,10.22625,103.97299,REGULAR,,sÂN căn hộ tại thị trấn Dương Đông - cửa sổ,entire_home,False,,/ đêm,,,2.0,True,True,,True,,,,,False,False,True,,,"4,83",12,True,,True,,,,,,,,,,,,,,True,,,,,,,,,,,
875072656306658821,https://www.airbnb.com.vn/rooms/875072656306658821,Phu Quoc,30,10.028016797397441,104.00799311724568,REGULAR,,KL Hotel Phu Quoc,private_room,False,,/ đêm,,,16.0,,True,True,True,,,,True,,,,,True,,,True,,True,,,,,True,,,True,,,,,,,,,,True,,,,,,,
26845066,https://www.airbnb.com.vn/rooms/26845066,Rạch Giá,15,9.96725,105.10177,REGULAR,,CĂN HỘ WHITE LOTUS,entire_home,False,,/ đêm,1.699,₫1.699.636,6.0,True,True,,True,,,,,False,False,,,,"4,88",8,True,True,True,,,,,,,,,,,,,True,True,,,,,,,,,,,
851840796591894982,https://www.airbnb.com.vn/rooms/851840796591894982,Thành phố Phú Quốc,30,10.11336238218751,103.99026073515415,REGULAR,,Ken 's Villa 3BR,entire_home,False,,/ đêm,4.792,₫4.792.943,6.0,True,True,True,True,True,,True,True,False,,,,True,,,,,,,,,,,True,,,,,,,,,,,,,,,,,,,
867815144988135537,https://www.airbnb.com.vn/rooms/867815144988135537,Thành phố Phú Quốc,12,10.26735,103.93857,REGULAR,,Island life bamboo Bungalow with AC,private_room,False,,/ đêm,,,2.0,,True,True,True,True,,,,False,False,,,True,,1,,,True,True,True,5,True,True,,,,,,,,,,,,,,,,,,,,
21708255,https://www.airbnb.com.vn/rooms/21708255,Phu Quoc Island,30,10.22913,103.953,REGULAR,,Nhà bãi biển HS 2- đảo Phú Quốc,entire_home,False,,/ đêm,1.311,₫1.311.532,4.0,True,True,,True,,,,,False,False,,,True,"4,7",23,True,True,True,,,,,,,,,,,,,,True,,,,,,,,,,,
887163741674540493,https://www.airbnb.com.vn/rooms/887163741674540493,Thành phố Phú Quốc,20,10.096,104.0148,REGULAR,,1-bed 2-balcony w free Breakfast n Airport ride,private_room,False,,/ đêm,,,2.0,True,True,,True,,,,True,False,,,,True,,,True,True,,,,,,,,True,True,,,,,,,,,,,,,,,,,
41565377,https://www.airbnb.com.vn/rooms/41565377,Thành phố Phú Quốc,30,10.21545,104.06999,REPRESENTATIVE,,"LotusHome, Ocean Sunset retreat w bathtub&Balcony",private_room,False,,/ đêm,1.131,₫1.131.429,2.0,True,True,True,True,,,,,,,,,True,"4,91",11,,True,True,,,,,,,True,,True,,,,,,,,,,,,,,,,
859861143945885297,https://www.airbnb.com.vn/rooms/859861143945885297,Phu Quoc,16,10.132448249704016,103.98443756881714,REGULAR,,Căn hộ MTown Deluxe dành cho bạn,entire_home,False,,/ đêm,,,2.0,True,True,,True,True,,True,True,False,False,,,True,,,True,,,,,,,,,,,,,,,,,,,,,,,,,,,
646084588961144874,https://www.airbnb.com.vn/rooms/646084588961144874,Thành phố Phú Quốc,20,10.18395,103.97236,REGULAR,,Bungalow Mộc Lâm Phú Quốc,private_room,False,,/ đêm,4.724,₫4.724.473,16.0,True,True,True,True,True,,,,,,True,,True,"5,0",4,True,True,True,,,,,,,,,,,,,,,,,,,,,,,,,
34362743,https://www.airbnb.com.vn/rooms/34362743,Phu Quoc,17,10.26717,103.93948,REGULAR,,Amaia Villa - một ngôi nhà trên bãi biển ở nơi xa,entire_home,False,,/ đêm,4.791,₫4.791.063,12.0,True,True,,True,True,,,True,False,False,,,,"4,71",59,True,True,,,,,,,,True,,,,,,,,,,,,,,,,,,
884276754059760294,https://www.airbnb.com.vn/rooms/884276754059760294,Thốt Nốt,28,10.2678349,105.5339394,REGULAR,,Here Library,entire_home,False,,/ đêm,,,2.0,,True,True,True,,,True,,False,False,,,,,,,,True,,,,,,,,,True,,,,,True,,,,,,,,,,,
763400464159140126,https://www.airbnb.com.vn/rooms/763400464159140126,Phu Quoc,30,10.267235614242846,103.93807623846422,REGULAR,,Green Bungalow Phú Quốc 2 - Tầm nhìn ra vườn,private_room,False,,/ đêm,,,6.0,True,True,True,True,True,,,,False,False,True,,True,"4,55",11,,,,False,True,5,,,,,,,,,,,,,,False,,,,,,,,
688658514178543426,https://www.airbnb.com.vn/rooms/688658514178543426,Thành phố Phú Quốc,30,10.14723,103.98396,REGULAR,,Phòng cao cấp giường King ban công ngắm núi - P202,private_room,False,,/ đêm,,,2.0,True,True,True,True,True,,,True,False,False,,,True,"4,58",19,,True,,,,,,,,,,,,,,,,,,,,,,,,,,
31503135,https://www.airbnb.com.vn/rooms/31503135,tỉnh Kiên Giang,30,10.22115,104.07298,REGULAR,,Lotus Home! Mặt trời mọc đẹp ở phía đông Phú Quốc,entire_home,False,,/ đêm,895.512,₫895.512,4.0,True,True,True,True,,True,,,False,False,,,True,"4,94",47,True,True,,,,,,,,,,,,,,,,,,,,,,,,,,
778574600504424080,https://www.airbnb.com.vn/rooms/778574600504424080,Thành phố Phú Quốc,25,10.1132969412947,103.98561649024487,REGULAR,,"Nhà nguyên căn 5 phòng ngủ, hồ bơi, nhà bếp, gara",entire_home,False,,/ đêm,2.967,₫2.967.060,10.0,True,True,True,True,True,,True,True,,,,,True,,,,,,,,,,,,,,True,,,,,,,,,True,,,,,,,
15088996,https://www.airbnb.com.vn/rooms/15088996,tp. Phú Quốc,15,10.23568,103.9511,REGULAR,,TS BEACH HOUSE 4 - Sống trên bãi biển,entire_home,False,,/ đêm,1.311,₫1.311.532,2.0,True,True,,,,True,,,False,False,,,True,"4,71",159,True,True,True,,,,,,,,,,,,,,True,,,,,,,,,,,
870019277716592127,https://www.airbnb.com.vn/rooms/870019277716592127,Phu Quoc,30,10.13128,103.98056,REGULAR,,lucy villas phu quoc,entire_home,False,,/ đêm,4.336,₫4.336.473,12.0,True,True,True,True,True,True,,True,False,,,True,True,,,,,,,,,,,,,,,,,,,,,,,,,,,,,,
807867820394305971,https://www.airbnb.com.vn/rooms/807867820394305971,Phu Quoc,29,10.11585,103.98108,REGULAR,,Marina Seaside Boutique Hotel II,private_room,False,,/ đêm,,,2.0,,True,,True,True,,,True,False,,,,True,"5,0",5,True,,True,,,,,True,,,True,,,,,,,,,,,,,,,,,
891066452785809000,https://www.airbnb.com.vn/rooms/891066452785809000,Thành phố Phú Quốc,30,10.32314,103.85507,REGULAR,,Standard room,private_room,False,,/ đêm,,,2.0,,True,True,True,True,,,,False,,True,,True,,,True,,True,,,,,,,,True,,,,,,,,,,,,,,,,,
888042944487801848,https://www.airbnb.com.vn/rooms/888042944487801848,Thành phố Phú Quốc,21,10.03392,104.00622,REGULAR,,Sea View w free Breakfast n Airport ride,private_room,False,,/ đêm,,,3.0,True,True,,True,,,,True,False,,,,True,,,True,True,,,,,,,,True,True,,,,,,,,,,,,,,,,,
30321355,https://www.airbnb.com.vn/rooms/30321355,Thành phố Phú Quốc,30,10.23451,103.95246,REGULAR,,KD Beach House_ Trực tiếp trên chế độ xem Beach_Sea,entire_home,False,,/ đêm,1.350,₫1.350.393,2.0,True,True,,True,,,,,False,False,,,True,"4,88",51,True,True,True,,,,,True,,,,,,,,,,,,,,,,,,,,
816572954705256594,https://www.airbnb.com.vn/rooms/816572954705256594,Phu Quoc,30,10.26655,103.94009,REGULAR,,Greenlife villa A01-phu Quoc,entire_home,False,,/ đêm,,,6.0,True,True,True,True,True,,,True,,,,,True,,,True,True,True,,,,,,,,,,,,,,,,,,,,,,,,,
785737178532803102,https://www.airbnb.com.vn/rooms/785737178532803102,Thành phố Phú Quốc,30,10.327857678485904,103.86400412768126,REGULAR,,Homestay F5 GrandWorld Phú Quốc,entire_home,False,,/ đêm,,,16.0,True,True,True,True,,,,True,False,,,True,True,"5,0",3,,,,,,,,,,,,,,True,,,,,,,True,,,,,,,
850502783046368909,https://www.airbnb.com.vn/rooms/850502783046368909,Thành phố Phú Quốc,13,10.13061,103.9797,REGULAR,,Hoàng Hải Villas 7 (4 phòng ngủ),entire_home,False,,/ đêm,4.200,₫4.200.000,8.0,True,True,True,True,True,True,True,,False,False,,,True,,,,,,,,,,,,,,,,,,,,,,,,,,,,,,
42730836,https://www.airbnb.com.vn/rooms/42730836,Thành phố Phú Quốc,10,10.18285,103.97204,REPRESENTATIVE,,Phòng khách sạn bao gồm ăn sáng tại Phú Quốc,private_room,False,,/ đêm,799.999,₫799.999,2.0,,True,True,True,True,,,True,False,False,,,,"4,67",15,True,,True,,,,,,,,,,,,,,True,,,,,,,,,,,
887204798615274999,https://www.airbnb.com.vn/rooms/887204798615274999,Thành phố Phú Quốc,19,10.0275,104.00975,REPRESENTATIVE,,1-bed Nice view w free Breakfast n Airport ride,private_room,False,,/ đêm,,,2.0,,True,True,True,,,,True,False,,,,True,,,True,True,,,,,,,,True,True,,,,,,,,,,,,,,,,,
755925461843552923,https://www.airbnb.com.vn/rooms/755925461843552923,Thành phố Phú Quốc,16,10.24296,104.07754,REGULAR,,Rock Corner House tại bờ Đông Phú Quốc,entire_home,False,,/ đêm,821.647,₫821.647,2.0,True,True,,True,,,True,,False,False,,,True,"5,0",11,,True,,,,,,,,,,True,,,True,,,,,,,,,,,,,
863386620554580605,https://www.airbnb.com.vn/rooms/863386620554580605,Thành phố Phú Quốc,30,10.22697,103.95382,REGULAR,,Hoa Homestay Phú Quốc,private_room,False,,/ đêm,,,9.0,True,True,True,True,,,,True,False,False,,,True,,,True,,,False,True,,,,,,,,,,,,,,,False,,,,,,,,
710637696075749515,https://www.airbnb.com.vn/rooms/710637696075749515,Phu Quoc,30,10.17924,103.96813,REGULAR,,"Nhà nguyên căn yên bình gần bãi biển, sân bay, thác nước",entire_home,False,,/ đêm,2.729,₫2.729.695,10.0,True,True,True,True,True,,True,,,,True,,True,"4,71",7,True,,,,,,,,,,,,,,,,,,,,True,,,,,,,
756823789744593532,https://www.airbnb.com.vn/rooms/756823789744593532,Phu Quoc,8,10.25986,103.93678,REGULAR,,Bungalow riêng với giường cỡ King mềm gần bãi biển,entire_home,False,,/ đêm,,,2.0,True,True,True,,,,,True,False,,,,True,"5,0",9,,,True,,,,,True,,,,,,,,True,,,,,,True,,,,,,
692420135881079052,https://www.airbnb.com.vn/rooms/692420135881079052,Thành phố Phú Quốc,30,10.24349,104.07702,REGULAR,,COZY HOME secluded-perched between mountains & sea,entire_home,False,,/ đêm,907.177,₫907.177,2.0,True,True,True,True,,,,True,False,False,True,,True,"5,0",8,,,,,,,,,,,,,,,,,,,,,,,,,,,,
45298817,https://www.airbnb.com.vn/rooms/45298817,Thành phố Phú Quốc,30,10.22841,103.95629,REGULAR,,Fisherman homestay (Phòng Cá Bự),entire_home,False,,/ đêm,884.412,₫884.412,4.0,True,True,True,True,,,,,False,,,,,"4,44",16,True,True,True,,,,,True,,True,,,,,,,,,,,,,,,,,,
857118263537646158,https://www.airbnb.com.vn/rooms/857118263537646158,Thành phố Phú Quốc,28,10.03788,104.01011,REGULAR,,EM Apartment Phú Quốc,private_room,False,,/ đêm,,,16.0,True,True,True,True,,,True,True,False,,True,,,,,,True,,,,,,,,,,,,True,,,,,,,,,,,,,,
857907141353130864,https://www.airbnb.com.vn/rooms/857907141353130864,Thành phố Phú Quốc,20,10.02078,104.01733,REGULAR,,"HOT, Khách sạn 3 sao rẻ nhất Phú Quốc",private_room,False,,/ đêm,445.612,₫445.612,2.0,True,True,True,True,,,True,True,False,,,,True,"4,0",3,True,True,,,,,,,,,,,,,,,,,,,,,,,,,,
756912847160852038,https://www.airbnb.com.vn/rooms/756912847160852038,Thành phố Phú Quốc,27,10.2212443,104.0729348,REPRESENTATIVE,,Deluxe nhìn ra vườn,private_room,False,,/ đêm,1.380,₫1.380.000,2.0,,True,True,True,True,,,,False,,True,,True,"5,0",4,True,True,,,,,,,,True,,,,,,,,,,,,,,,,,,
23793844,https://www.airbnb.com.vn/rooms/23793844,,10,10.01581,104.00976,REGULAR,,Phòng không phải phòng AC.,private_room,False,,/ đêm,273.882,₫273.882,2.0,True,True,,True,,,,,False,False,,,,"4,67",9,True,True,,,,,,,,,True,,,,,,,True,,,,,True,,,,,
24172919,https://www.airbnb.com.vn/rooms/24172919,Dương Tơ,13,10.18524,103.97551,REGULAR,,Bungalow Gia đình Đảo,private_room,False,,/ đêm,,,5.0,,True,True,True,True,,True,,False,,,,True,"5,0",22,True,,True,,,,,True,,,,,,,,,,,,,,,,,,,,
38253331,https://www.airbnb.com.vn/rooms/38253331,Thành phố Phú Quốc,30,10.13032,103.98183,REGULAR,,Kosmos Apart Hotel: 2-bedroom deluxe apartment,hotel_room,False,,/ đêm,2.523,₫2.523.643,6.0,True,True,,True,,,,,False,,,,,,,True,True,,,,,,,,,True,,,,,True,True,True,,,,,,,,,,
869123005172427417,https://www.airbnb.com.vn/rooms/869123005172427417,Thành phố Long Xuyên,10,10.38379,105.43628,REGULAR,,Alpha Homestay Marina LongXuyên,entire_home,False,,/ đêm,,,4.0,True,True,True,True,,,,,False,False,,,,,,,,True,,,,,,,,,,,,,,,,,,,,,,,,,
701142823018059949,https://www.airbnb.com.vn/rooms/701142823018059949,Phu Quoc,21,10.132,103.98124,REGULAR,,Hoàng Hải Villas 4 ( 3 phòng ngủ ),entire_home,False,,/ đêm,,,6.0,True,True,True,True,True,True,True,,,,,,,,,True,True,True,,,,,,,,,,,,,,,,,,,,,,,,,
877171490275116028,https://www.airbnb.com.vn/rooms/877171490275116028,Thành phố Phú Quốc,13,10.116071816628875,103.98405846208334,REGULAR,,"Full house 5 bedroom, 5 bathroom near beach",entire_home,False,,/ đêm,,,10.0,True,True,True,True,True,,,True,,,,True,True,,,,,,,,,,,,,True,,,,,,,,,,True,,,,,,,
32091808,https://www.airbnb.com.vn/rooms/32091808,"Duong Dong Town, Phu Quoc",16,10.21047,103.96535,REGULAR,,Nhà gia đình 3 phòng ngủ,private_room,False,,/ đêm,2.967,₫2.967.060,6.0,True,True,,True,True,,,,False,,,,,"4,91",11,True,,True,True,True,6,,,,,,,,,,,True,True,,False,,,,,,,,
863388191842853753,https://www.airbnb.com.vn/rooms/863388191842853753,Thành phố Phú Quốc,11,10.26128,103.94264,REGULAR,,Bungalow phong cách gỗ + nhà bếp,entire_home,False,,/ đêm,,,3.0,True,True,True,True,,,True,,False,,True,,True,,,True,,True,,,,,,,,,,,,,,,,,,,,,,,,,
31016022,https://www.airbnb.com.vn/rooms/31016022,,25,10.25022,104.08109,REPRESENTATIVE,,"Lotus home, nhà nghỉ dưỡng trên cây với tầm nhìn ra biển",entire_home,False,,/ đêm,,,2.0,True,True,True,True,,,,,,,,,True,"4,99",77,,True,True,,,,,True,,True,,True,,,,,,,,,,,,,,,,
869157751243209065,https://www.airbnb.com.vn/rooms/869157751243209065,Thành phố Rạch Giá,5,9.96735,105.09921,REGULAR,,Phòng ở tại Trung tâm Thành Phố,private_room,False,,/ đêm,,,2.0,,True,,True,,,True,True,False,False,,,,,,True,,True,,,,,,,,,,,,,,,,,,,,,,,,,
38253117,https://www.airbnb.com.vn/rooms/38253117,Thành phố Phú Quốc,30,10.13037,103.98186,REGULAR,,Kosmos Apart Hotel: Căn hộ 1 phòng ngủ,hotel_room,False,,/ đêm,1.231,₫1.231.224,2.0,True,True,,True,,,,,False,,,,,,,True,True,True,,,,,,,,True,,,,,True,True,,,,,,,,,,,
603407707625763179,https://www.airbnb.com.vn/rooms/603407707625763179,Thành phố Phú Quốc,18,10.13579,103.98028,REGULAR,,Violet House - Khu biệt thự và khu nghỉ dưỡng Khu Sonasea,entire_home,False,,/ đêm,4.389,₫4.389.453,16.0,True,True,True,True,,,,True,False,False,,,True,"4,8",5,True,,,,,,,,,,,,,,True,,,,,,,,,,,,,
865014001935863368,https://www.airbnb.com.vn/rooms/865014001935863368,Thành phố Phú Quốc,17,10.163512430982706,103.97249545902014,REGULAR,,Best room near beach,private_room,False,,/ đêm,547.765,₫547.765,2.0,,True,True,True,True,,,True,False,,,,True,,,True,,True,,,,,,,,,,,,,,,,,,,,,,,,,
788128942737207947,https://www.airbnb.com.vn/rooms/788128942737207947,Phu Quoc,22,10.1781308,103.9675709,REGULAR,,Phòng riêng tại Kalia Phú Quốc.,private_room,False,,/ đêm,776.000,₫776.000,4.0,True,True,True,True,True,,,True,False,,True,,True,"5,0",3,,,,,,,,,,,,,,,,,,,,,True,,,,,,,
814974186314871388,https://www.airbnb.com.vn/rooms/814974186314871388,Thành phố Phú Quốc,22,10.3261,103.85593,REGULAR,,Sel de Mer Apartment Grand World Phú Quốc,private_room,False,,/ đêm,,,6.0,,True,,True,,,,True,,,,True,True,"5,0",4,True,,True,True,True,6,,,,,True,,,True,,,,,,False,,,,,,,,
884488584144610463,https://www.airbnb.com.vn/rooms/884488584144610463,Phu Quoc,7,10.036139888824428,104.02855757571074,REGULAR,,"Nơi đến lý tưởng , gần biển",private_room,False,,/ đêm,,,16.0,True,True,True,True,,,,True,False,,,,,,,True,True,True,,,,,,,,,,,,,,,,,,,,,,,,,
20961555,https://www.airbnb.com.vn/rooms/20961555,Thành phố Phú Quốc,20,10.23455,103.95149,REGULAR,,TS NHÀ BÃI biển 1 - sống trên bãi biển,entire_home,False,,/ đêm,1.300,₫1.300.836,2.0,True,True,,True,,,,,False,False,True,,True,"4,74",81,True,True,True,,,,,,,,,,,,,,,,,,,,,,,,,
10244071,https://www.airbnb.com.vn/rooms/10244071,tp. Phú Quốc,30,10.262071,103.942383,REGULAR,,Sống cùng gia đình bản xứ Spring Garden 3,private_room,False,,/ đêm,319.530,₫319.530,2.0,,True,,True,,,,,False,False,True,,,"4,93",97,True,,True,True,True,7,True,True,,,,,,,,True,,,,,,,,,,,,
48582818,https://www.airbnb.com.vn/rooms/48582818,Thành phố Phú Quốc,30,10.2421,104.07839,REGULAR,,NHÀ THIỀN bờ biển Hàm Ninh - Phú Quốc,private_room,False,,/ đêm,1.489,₫1.489.177,4.0,True,True,True,True,,,,,False,False,True,,True,"4,92",13,,,,False,True,2,True,,,,,,,,True,,,,,,,,,,,,,
39804749,https://www.airbnb.com.vn/rooms/39804749,Phu Quoc,25,10.182924270629883,103.97183990478516,REGULAR,,Phòng đôi La Nube Residence,private_room,False,,/ đêm,595.694,₫595.694,2.0,True,True,True,True,True,,,,False,False,,,,"4,78",23,True,,True,,,,,True,,,,,,,,,,,,,,,,,,,,
674858988738825609,https://www.airbnb.com.vn/rooms/674858988738825609,Thành phố Phú Quốc,12,10.132584861903114,103.98461933389893,REGULAR,,MTown - Phòng đôi sang trọng có ban công,private_room,False,,/ đêm,,,3.0,,True,,True,True,,True,,False,False,,,,,,True,,True,,,,,,,,,,,,,,,,,,,,,,,,,
10048561,https://www.airbnb.com.vn/rooms/10048561,tp. Phú Quốc,30,10.262603,103.942719,REGULAR,,Sống cùng gia đình bản xứ Spring Garden,private_room,False,,/ đêm,303.553,₫303.553,2.0,,True,True,True,,,,True,False,False,True,,,"4,88",156,True,,,True,True,7,True,,,,,,,,,,,,,,,,,,,,,
722653403354031591,https://www.airbnb.com.vn/rooms/722653403354031591,Thành phố Phú Quốc,30,10.11477,103.9818,REGULAR,,(DPV2) ParkView |BAN CÔNG* cách bãi biển 50 m |Bữa sáng,private_room,False,,/ đêm,,,2.0,,True,True,True,True,,,True,,,True,,True,,,True,,True,,,,,,,,True,,,,,,,,,,,,,,,,,
734466129153303797,https://www.airbnb.com.vn/rooms/734466129153303797,Thành phố Phú Quốc,26,10.32426472267146,103.85433456790017,REGULAR,,Apartment room in Grand World Phu Quoc -near beach,private_room,False,,/ đêm,2.385,₫2.385.060,4.0,True,True,,True,,,,True,False,False,,,True,"5,0",8,True,,,,,,,,,,True,,,,,,,,,,True,,,,,,,
864294038460183924,https://www.airbnb.com.vn/rooms/864294038460183924,Thành phố Phú Quốc,11,10.26311,103.94367,REGULAR,,Ngôi nhà nhiệt đới - Homestay Phú Quốc,entire_home,False,,/ đêm,,,2.0,True,True,,True,,,,True,False,False,True,,,,,,True,,,,,,True,,,,,,,,True,,,,,,,,,,,,
22800352,https://www.airbnb.com.vn/rooms/22800352,Thành phố Phú Quốc,23,10.23032,103.96658,REGULAR,,"Phòng ngắm cảnh hoàng hôn 1
Lam 's Homestay - Thị trấn ấm cúng",private_room,False,,/ đêm,319.530,₫319.530,2.0,True,True,,True,,,,,False,False,True,,,"5,0",23,,True,True,True,True,5,True,True,,,,,,,,,,,,,,,,,,,,
886573230936779579,https://www.airbnb.com.vn/rooms/886573230936779579,Thành phố Phú Quốc,23,10.09609,104.01533,REGULAR,,"Sea View w Kitchen, Table, Breakfast, Airport ride",private_room,False,,/ đêm,,,4.0,True,True,,True,,,,True,False,,,,True,,,True,True,,,,,,,,,True,True,,,,,,,,,,,,,,,,
875783077092555806,https://www.airbnb.com.vn/rooms/875783077092555806,Thành phố Phú Quốc,6,10.325391243325436,103.8626467090149,REGULAR,,Deluxe Twin Room,private_room,False,,/ đêm,595.694,₫595.694,2.0,,True,True,True,,,,,False,False,,,,,,True,,True,,,,,,,,,,,,,,True,,,,,,,,,,,
9262779,https://www.airbnb.com.vn/rooms/9262779,tp. Phú Quốc,18,10.23558,103.95113,REGULAR,,TS BEACH HOUSE 3 - Sống trên bãi biển,entire_home,False,,/ đêm,1.311,₫1.311.532,2.0,True,True,,,,,,,False,False,,,True,"4,63",132,True,True,True,,,,,True,,,,,,,,,,,True,,,,,,,,,
861290354088331929,https://www.airbnb.com.vn/rooms/861290354088331929,Thành phố Phú Quốc,24,10.01747,104.01327,REGULAR,,Khách sạn Sky,private_room,False,,/ đêm,684.706,₫684.706,2.0,True,True,True,True,,,True,True,,,,,True,,,True,,,,,,,,,,True,True,,,,,,,,,,,,,,,,
44037054,https://www.airbnb.com.vn/rooms/44037054,Thành phố Phú Quốc,30,10.23396,103.95234,REGULAR,,Căn hộ KD Sea View _ sống trên bãi biển,entire_home,False,,/ đêm,1.338,₫1.338.278,2.0,True,True,,True,,True,True,,False,False,,,True,"4,7",10,True,True,,,,,,,,,,,,,,,,,,,,,,,,,,
19299725,https://www.airbnb.com.vn/rooms/19299725,Thành phố Phú Quốc,30,10.22866,103.9552,REGULAR,,Nhà trên bãi biển Larina S2,entire_home,False,,/ đêm,,,2.0,True,True,,True,,,,,False,False,,,,"4,88",121,True,True,True,,,,,True,,,,,,,,,True,,,,,,,,,,,
39804145,https://www.airbnb.com.vn/rooms/39804145,Phu Quoc District,15,10.18018,103.96945,REGULAR,,Bungalow Phú Mỹ Hưng cho hai người lớn,entire_home,False,,/ đêm,496.412,₫496.412,2.0,True,True,True,True,True,,True,,False,False,,,,"4,75",8,,True,True,,,,,,,,,,,,,,,,,,,,,,,,,
777984865781547141,https://www.airbnb.com.vn/rooms/777984865781547141,Thành phố Phú Quốc,12,10.222519084050036,103.96658020019925,REGULAR,,Biệt thự gia đình (60m2)Có nhà bếp - Phú Quốc 2.2,entire_home,False,,/ đêm,1.279,₫1.279.530,4.0,True,True,True,True,True,True,,,False,False,,,True,"5,0",5,,,,,,,,,,,,,,,,,,,,,True,,,,,,,
16185768,https://www.airbnb.com.vn/rooms/16185768,Phu Quoc,30,10.262854,103.942863,REGULAR,,Sống cùng gia đình bản xứ Spring Garden 5,private_room,False,,/ đêm,319.530,₫319.530,2.0,,True,,True,,,,,False,False,True,,,"4,86",63,True,,True,True,True,7,True,True,,,,,,,,True,,,,,,,,,,,,
865508280736233583,https://www.airbnb.com.vn/rooms/865508280736233583,Phu Quoc,11,10.138020693839684,103.97852875292301,REGULAR,,Amara Superior Room Garden View,private_room,False,,/ đêm,,,2.0,True,True,True,True,True,,,True,False,,,,True,,,True,True,,,,,,,,,,,,,,,,,,,,,,,,,,
881182557689287852,https://www.airbnb.com.vn/rooms/881182557689287852,Phu Quoc,30,10.025177992893399,104.00777758598328,REGULAR,,Twin Room Ocean View 1,private_room,False,,/ đêm,,,4.0,True,True,True,True,,,,True,False,,,,True,,,,,,False,True,,True,,,,,True,,,,,,,,,True,,,,,,,
48337510,https://www.airbnb.com.vn/rooms/48337510,Thành phố Long Xuyên,25,10.383315640786726,105.43684856104994,REGULAR,,Căn hộ Lá Homestay - Marina Plaza 2 phòng ngủ,entire_home,False,,/ đêm,1.300,₫1.300.942,5.0,True,True,True,True,,True,True,True,,,,,,,,True,True,,,,,,,,,,,,,,,,,,,True,,,,,,,
564072695252212143,https://www.airbnb.com.vn/rooms/564072695252212143,Phu Quoc,17,10.11567,103.98385,REGULAR,,Phòng cao cấp Amara - 2 phút đi bộ ra bãi biển,private_room,False,,/ đêm,760.480,₫760.480,2.0,True,True,,True,True,,,True,False,False,True,,True,"5,0",11,True,,,,,,,,,,,,,,,,,,,,,,,,,,,
882326009896745138,https://www.airbnb.com.vn/rooms/882326009896745138,Phu Quoc,30,10.028141143299182,104.00865321945268,REGULAR,,Ocean Studio at Sunset town,entire_home,False,,/ đêm,,,2.0,True,True,True,True,True,,,True,,,,,True,,,True,True,True,,,,,,,,,,,,,,,,,,,,,,,,,
42820549,https://www.airbnb.com.vn/rooms/42820549,Phu Quoc,30,10.13165,103.98486,REGULAR,,Căn hộ có bãi tắm ★ Bãi biển miễn phí ★Hồ bơi ★Xe tay ga,entire_home,False,,/ đêm,802.991,₫802.991,3.0,True,True,,True,True,True,,True,,,,,True,"4,52",27,True,True,True,,,,,,,,,,,,,,,,,,,,,,,,,
790086698322167081,https://www.airbnb.com.vn/rooms/790086698322167081,Phu Quoc,30,10.03606,104.02801,REGULAR,,"Phòng khách sạn đẹp, gần bãi biển, có bếp chung",private_room,False,,/ đêm,447.917,₫447.917,2.0,True,True,,True,,,True,True,False,,,,True,"3,33",3,True,,,,,,,,,,True,,,True,,,,,,,,,,,,,,
45534166,https://www.airbnb.com.vn/rooms/45534166,Thành phố Phú Quốc,11,10.1849,103.96903,REPRESENTATIVE,,Aurora House Phú Quốc - Phòng đôi,private_room,False,,/ đêm,600.000,₫600.000,2.0,,True,,True,,,,,False,False,,,,"4,82",11,True,,True,,,,,,,,,,,,,,True,,,,,,,,,,,
41016847,https://www.airbnb.com.vn/rooms/41016847,Thành phố Phú Quốc,28,10.09385,103.98561,REGULAR,,Biệt thự Phú Quốc,private_room,False,,/ đêm,481.803,₫481.803,2.0,True,True,,True,True,,,,False,False,,,,"5,0",4,True,True,,True,True,7,,,,True,,,,,,,,,,False,,,,,,,,
808942990788041970,https://www.airbnb.com.vn/rooms/808942990788041970,Phu Quoc,30,10.1157,103.98207,REGULAR,,KHUYẾN MÃI lớn Gần hồ bơi và bãi biển - Giường King,private_room,False,,/ đêm,,,2.0,,True,,True,True,,,True,False,,,,True,,,True,,True,,,,,,,,True,,,,,True,,,,,,,,,,,,
41594990,https://www.airbnb.com.vn/rooms/41594990,Thành phố Phú Quốc,30,10.23285,103.95248,REGULAR,,HN Beach House _ Trực tiếp trên bãi biển,entire_home,False,,/ đêm,1.597,₫1.597.648,4.0,True,True,True,True,,,True,,False,False,,,True,"4,89",18,True,True,,,,,,,,,,,,,,,,,,,,,,,,,,
802879815874120358,https://www.airbnb.com.vn/rooms/802879815874120358,Thành phố Phú Quốc,13,10.22053,104.07228,REGULAR,,Starfish Guesthouse -Private Beach-Resort Access,entire_home,False,,/ đêm,1.605,₫1.605.157,2.0,True,True,,True,,,,,,,,,True,,,,,True,,,,,,,,,,,,,True,,,,,,,,True,,,,
35355674,https://www.airbnb.com.vn/rooms/35355674,Long Xuyên,11,10.36613,105.44714,REGULAR,,- Phòng riêng tại thành phố Long Xuyen | Phòng số 3,private_room,False,,/ đêm,330.941,₫330.941,2.0,True,True,,True,,,,True,False,False,,,,"5,0",3,,,True,False,True,4,True,,,,,,,,,True,True,,,,,,,,,,,
808219186847278711,https://www.airbnb.com.vn/rooms/808219186847278711,Thành phố Phú Quốc,30,10.231843236730832,103.97610481758372,REGULAR,,Lee Villa Phu Quoc,entire_home,False,,/ đêm,4.000,₫4.000.000,10.0,True,True,True,True,True,True,,True,False,False,True,,,,,,,,,,,,,,,,,,,,,,,,,,,,,,,,
881162948058877419,https://www.airbnb.com.vn/rooms/881162948058877419,Phu Quoc,30,10.025065464520955,104.0077919032092,REGULAR,,Phòng Hướng Biển An Thới DKOV1,private_room,False,,/ đêm,,,2.0,True,True,True,True,,,,True,False,,,,True,,,True,,,,,,,,,,,True,,,,,,,,,True,,,,,,,
856761430533459908,https://www.airbnb.com.vn/rooms/856761430533459908,Thành phố Phú Quốc,12,10.2622332,103.9447066,REGULAR,,Căn phòng xinh xắn nhiệt đới - Homestay Phú Quốc,entire_home,False,,/ đêm,285.294,₫285.294,2.0,True,True,,True,,,,True,False,False,True,,,,,,True,,,,,,True,,,,,,,,True,,,,,,,,,,,,
794420360972410402,https://www.airbnb.com.vn/rooms/794420360972410402,Thành phố Rạch Giá,7,9.96724,105.10333,REGULAR,,Căn hộ Red Lotus,entire_home,False,,/ đêm,1.483,₫1.483.530,4.0,True,True,,True,,,,,False,False,,,,,,True,True,True,,,,,,,,,,,,,,,,,,,,True,,,,,
819841004852230006,https://www.airbnb.com.vn/rooms/819841004852230006,Thành phố Phú Quốc,30,10.18421,103.96939,REPRESENTATIVE,,Bữa sáng - Yoga - Lối ra bãi biển,private_room,False,,/ đêm,,,2.0,,True,True,True,True,,,True,False,False,,,True,"5,0",3,,,True,,,,,,,,,,,,,True,,,,,,,,,,,,
757530868589785059,https://www.airbnb.com.vn/rooms/757530868589785059,Thành phố Phú Quốc,19,10.2212443,104.0729348,REPRESENTATIVE,,Deluxe Ocean Breeze,private_room,False,,/ đêm,1.680,₫1.680.000,2.0,,True,True,True,True,,,True,False,,,,True,,,True,True,,,,,,,,True,,,,,,,,,,,,,,,,,,
41302961,https://www.airbnb.com.vn/rooms/41302961,Phu Quoc,30,10.18305778503418,103.9719009399414,REGULAR,,Phòng ba La Nube Residence,private_room,False,,/ đêm,878.706,₫878.706,3.0,True,True,True,True,True,,,,False,False,,,,"4,94",18,True,,True,,,,,,,,,,,,,True,,,,,,,,,,,,
868595577727423684,https://www.airbnb.com.vn/rooms/868595577727423684,Thành phố Phú Quốc,13,10.036656499464634,104.0254707634449,REGULAR,,Khách sạn 3 sao rẻ nhất Phú Quốc,private_room,False,,/ đêm,,,2.0,True,True,True,True,,,True,True,False,,,,True,,,True,True,,,,,,,,,,,,,,,,,,,,,,,,,,
851109083565594934,https://www.airbnb.com.vn/rooms/851109083565594934,Phu Quoc,30,10.024506075792917,104.00788653641939,REGULAR,,Căn hộ một phòng ngủ hoàng hôn,entire_home,False,,/ đêm,1.138,₫1.138.324,2.0,True,True,True,,,True,,True,False,,,,True,,,True,,True,,,,,,,,True,,,,,,,,,,,,,,,,,
37061162,https://www.airbnb.com.vn/rooms/37061162,Phu Quoc ,13,10.2039,103.99061,REGULAR,,Colorfulhomestay Garden house 3,private_room,False,,/ đêm,,,2.0,True,True,,True,,,,,False,False,True,,,,,,True,True,,,,,True,,,,,,,True,,,,,,,,,,,,,
854612828625439575,https://www.airbnb.com.vn/rooms/854612828625439575,Thành phố Phú Quốc,30,10.156678525683692,103.97352034724302,REGULAR,,Nhà nguyên căn Kalia house,entire_home,False,,/ đêm,2.510,₫2.510.589,10.0,True,True,True,True,True,,,True,False,,,,True,,,True,True,,,,,,,,,,,,,,,,,,,,,,,,,,
787194099820112152,https://www.airbnb.com.vn/rooms/787194099820112152,Thành phố Phú Quốc,22,10.0356051,104.0177701,REGULAR,,"(Nóng), Phòng rẻ nhất Phú Quốc",private_room,False,,/ đêm,451.560,₫451.560,2.0,True,True,True,True,,,True,True,False,,,,True,,,True,True,,,,,,,,,,,,,,,,,,,,,,,,,,
40364063,https://www.airbnb.com.vn/rooms/40364063,Phú Quốc,30,10.26779,103.93096,REGULAR,,Giường gia đình Bungalow Ong Lang king& nhà bếp riêng,entire_home,False,,/ đêm,535.327,₫535.327,2.0,True,True,,True,True,,True,,False,False,True,,,"4,8",5,,True,True,,,,,,,,,,,,,,,,,,,,,,,,,
759973019429492387,https://www.airbnb.com.vn/rooms/759973019429492387,Phu Quoc,30,10.267136576503292,103.9378646418658,REGULAR,,Green Bungalow Phú Quốc - không khí trong lành tự nhiên,private_room,False,,/ đêm,601.469,₫601.469,7.0,True,True,True,True,True,,True,,False,False,True,,True,"4,72",18,,,,,,,,,,,,,,,,,,,,,,,,,,,,
731645418560928528,https://www.airbnb.com.vn/rooms/731645418560928528,Thành phố Phú Quốc,24,10.219148361840361,103.95903352698366,REGULAR,,Phòng riêng ấm cúng ở trung tâm (Phòng 2),private_room,False,,/ đêm,481.281,₫481.281,2.0,True,True,True,True,,,,,False,False,True,,True,"5,0",9,,True,,True,True,7,True,,,,,,,,,,,,,,,,,,,,,
839733215214761391,https://www.airbnb.com.vn/rooms/839733215214761391,Thành phố Phú Quốc,10,10.19273,103.96426,REGULAR,,Phòng Superior Giường Đôi - Cặp đôi đẹp 06,private_room,False,,/ đêm,512.389,₫512.389,2.0,,True,True,True,True,,,True,False,False,,,True,"5,0",3,,,True,,,,,True,,,,,,,,,,,,,,,,,,,,
31328986,https://www.airbnb.com.vn/rooms/31328986,Phú Quốc,15,10.04447,104.01641,REGULAR,,Phòng đôi ấm cúng - B Phú Quốc,private_room,False,,/ đêm,265.324,₫265.324,2.0,,True,,True,,,True,,False,,,,,,,True,,True,,,,,,,,,,,,,,,,,,,,,,,,,
11699117,https://www.airbnb.com.vn/rooms/11699117,tp. Phú Quốc,30,10.18879,103.96943,REGULAR,,Biệt thự Phú Quốc,entire_home,False,,/ đêm,481.803,₫481.803,2.0,,True,,True,,True,,,False,False,,,,"4,71",138,True,True,True,,,,,,,True,,,,,,,True,,,,,,,,,,,
841515360428610318,https://www.airbnb.com.vn/rooms/841515360428610318,Thành phố Phú Quốc,29,10.3289703,103.8616394,REPRESENTATIVE,,HANZ VeniceRiver MIA Grand World,private_room,False,,/ đêm,705.600,₫705.600,2.0,,True,True,True,,,,True,,,,,,,,True,,True,,,,,,,,,,,,,,True,,,,,,,,,,,
812523353110185080,https://www.airbnb.com.vn/rooms/812523353110185080,Thành phố Long Xuyên,20,10.37011,105.45275,REGULAR,,Lá Homestay,private_room,False,,/ đêm,625.365,₫625.365,2.0,True,True,True,True,,,,True,,,,,,,2,True,True,True,False,True,3,,True,,,,,,,,,,,,False,,,,,,,,
865598971156722967,https://www.airbnb.com.vn/rooms/865598971156722967,Thành phố Phú Quốc,29,10.13237,103.98098,REGULAR,,Biệt thự Bibeach Phú Quốc,entire_home,False,,/ đêm,3.964,₫3.964.775,12.0,True,True,True,True,True,,,True,False,,True,True,True,,,,,,,,,,,,,,,,,,,,,,,,,,,,,,
867806166146011415,https://www.airbnb.com.vn/rooms/867806166146011415,Phu Quoc,18,10.03277,104.00536,REGULAR,,"Town View. Kitchen, Table, Breakfast, Airport ride",private_room,False,,/ đêm,,,4.0,True,True,,True,,,,True,False,,,,True,,,True,True,,,,,,,,True,True,,,,,,,,,,,,,,,,,
672061687607761719,https://www.airbnb.com.vn/rooms/672061687607761719,Thành phố Phú Quốc,25,10.146492092526435,103.98342487189758,REGULAR,,"Phòng cao cấp giường King, ban công ngắm biển P302",private_room,False,,/ đêm,741.765,₫741.765,2.0,True,True,True,True,True,,,,False,False,,,True,,,,True,True,,,,,,,,,,,,,,,,,,,,,,,,,
846027802604699076,https://www.airbnb.com.vn/rooms/846027802604699076,Phu Quoc,30,10.025052476524712,104.00830999016762,REGULAR,,Cá Chép Deluxe 4 phòng ngủ,private_room,False,,/ đêm,3.902,₫3.902.825,8.0,,True,True,,,True,,True,False,,,,True,,,True,,True,,,,,,,,True,,,,,True,,,,,,,,,,,,
808924798066926972,https://www.airbnb.com.vn/rooms/808924798066926972,Phu Quoc,20,10.11465,103.98246,REGULAR,,Khách sạn Marina Seaside II,private_room,False,,/ đêm,,,2.0,,True,,True,True,,,True,False,,,,True,,,True,,True,,,,,True,,,True,,,,,,,,,,,,,,,,,
32751533,https://www.airbnb.com.vn/rooms/32751533,Thành phố Phú Quốc,30,10.22921,103.9512,REGULAR,,Phòng Bungalow 4 hướng ra biển - Sống cùng gia đình bản xứ Phú Huy,private_room,False,,/ đêm,2.676,₫2.676.587,8.0,True,True,True,True,,,,,False,False,,,True,"3,81",16,True,,,False,True,4,,,,True,,,,,,,,,,False,,,,,,,,
43472442,https://www.airbnb.com.vn/rooms/43472442,Thành phố Phú Quốc,30,10.22214,104.07379,REGULAR,,Cay Sao Beach Bungalow với tầm nhìn ra biển sang trọng,private_room,False,,/ đêm,1.198,₫1.198.236,2.0,,True,,True,True,,,,False,False,,,,"4,89",9,,,True,,,,,True,,,,,,,,,True,,,,,,True,,,,,
15242544,https://www.airbnb.com.vn/rooms/15242544,,13,10.18302,103.97049,REGULAR,,Phòng Tiêu Chuẩn Nhìn Ra Hồ Bơi - NH Bungalow,private_room,False,,/ đêm,321.812,₫321.812,2.0,,True,True,,True,,True,True,False,,,,,"4,33",9,True,,True,True,False,7,,,,,,,,,,,,,,False,,,True,,,,,
24175313,https://www.airbnb.com.vn/rooms/24175313,Thành phố Phú Quốc,23,10.18529,103.97446,REGULAR,,Le Forest Resort - Standard Bungalow (5),entire_home,False,,/ đêm,797.683,₫797.683,2.0,,True,True,True,True,,True,,False,,,,,"4,82",11,True,,True,,,,,,,,,,,,,,True,,,,,True,,,,,,
41634372,https://www.airbnb.com.vn/rooms/41634372,Thành phố Phú Quốc,23,10.22242,104.07696,REPRESENTATIVE,,"Lotus Home, nhà nhiệt đới, bồn tắm và Lotus Pond",entire_home,False,,/ đêm,,,2.0,True,True,True,True,,True,,,False,False,,,True,"4,83",12,,True,,,,,,,,True,,,,,,,,,,,,,,,,,,
868790999938311827,https://www.airbnb.com.vn/rooms/868790999938311827,Thành phố Phú Quốc,17,10.2242409,103.9651439,REGULAR,,Phòng Double Room,private_room,False,,/ đêm,,,2.0,,True,,True,,,,,False,False,,,,,,True,,True,,,,,,,,,,,,,,,,,,,,True,,,,,
787200308026365739,https://www.airbnb.com.vn/rooms/787200308026365739,Thành phố Phú Quốc,20,10.0356051,104.0177701,REGULAR,,(NÓNG) Phòng Rẻ nhất Phú Quốc,private_room,False,,/ đêm,451.842,₫451.842,2.0,True,True,True,True,,,True,True,False,,,,True,,,True,True,,,,,,,,,,,,,,,,,,,,,,,,,,
633558840566179354,https://www.airbnb.com.vn/rooms/633558840566179354,Phu Quoc,30,10.21374,104.07062,REPRESENTATIVE,,"LotusHome, Lazy Room W Sunset Ocean view & Bathtub",private_room,False,,/ đêm,1.131,₫1.131.429,2.0,True,True,True,True,,,,True,,,,,True,"4,86",7,,True,,,,,,,,True,,True,,,True,,,,,,,,,,,,,
784587748353626634,https://www.airbnb.com.vn/rooms/784587748353626634,Thành phố Phú Quốc,30,10.13389,103.98161,REGULAR,,Xin chào Park Villas Phú Quốc,entire_home,False,,/ đêm,3.461,₫3.461.570,14.0,True,True,True,True,True,,,True,False,,True,True,True,,,,,,,,,,,,,,,,,,,,,,,,,,,,,,
878472136539998249,https://www.airbnb.com.vn/rooms/878472136539998249,Phu Quoc,11,10.02509361277621,104.0080063619524,REGULAR,,JanaHouse (Sunset Town),private_room,False,,/ đêm,,,,True,True,True,,,,,True,False,,,,True,,,True,True,True,False,True,,True,,,,,,,,,,,,,,,,,,,,,
30977491,https://www.airbnb.com.vn/rooms/30977491,Phú Quốc,17,10.25108,104.08286,REPRESENTATIVE,,"Lotus Home, Nhà trên cây bình minh độc đáo",entire_home,False,,/ đêm,,,2.0,True,True,True,True,,,,,,,,,True,"4,81",57,,True,True,,,,,True,,True,,,,,,,,,True,,,,,,,,,
836477113067379110,https://www.airbnb.com.vn/rooms/836477113067379110,Phu Quoc,30,10.267148663429392,103.93784802407026,REGULAR,,Wood Bungalow trong thời gian dài,private_room,False,,/ đêm,,,2.0,True,True,True,True,,,True,,False,False,True,,True,,,,,,False,True,,,,,,,,,,,,,,,False,,,,,,,,
39791751,https://www.airbnb.com.vn/rooms/39791751,Thành phố Phú Quốc,19,10.17966,103.97089,REGULAR,,Bungalow Phú Mỹ Hưng cho gia đình,entire_home,False,,/ đêm,,,3.0,True,True,True,True,True,,True,,False,False,,,,"5,0",3,,True,True,,,,,,,,,,,,,,,,,,,,,,,,,
22646509,https://www.airbnb.com.vn/rooms/22646509,Thành phố Phú Quốc,30,10.23184,103.97267,REGULAR,,"Phòng ban công nhiệt đới Sống cùng gia đình bản xứ của
 Lam - Thị trấn ấm cúng",private_room,False,,/ đêm,342.353,₫342.353,3.0,True,True,,True,,,True,,False,False,,,,"4,95",19,,True,True,True,True,5,True,True,,,,,,,,,,,,,,,,,,,,
36541107,https://www.airbnb.com.vn/rooms/36541107,Phú Quốc,20,10.18992,103.97167,REGULAR,,Biệt thự Phú Quốc,private_room,False,,/ đêm,970.000,₫970.000,4.0,True,True,,,True,,,,False,False,,,,"4,73",11,True,True,True,True,True,7,,,,,,,,,,,,,,False,,,,,True,,,
814306263547521645,https://www.airbnb.com.vn/rooms/814306263547521645,Thành phố Phú Quốc,30,10.1154138,103.9835678,REGULAR,,Khách sạn Minh Phú Quốc,entire_home,False,,/ đêm,3.994,₫3.994.120,14.0,True,True,True,True,True,,,True,False,,,,True,,,True,True,,,,,,,,,,,,,,,,,,,,,,,,,,
846662670821606108,https://www.airbnb.com.vn/rooms/846662670821606108,Thành phố Phú Quốc,21,10.327194709993103,103.86344941002804,REGULAR,,Nguyên Căn Gia Đình 15 Người 5PN,entire_home,False,,/ đêm,,,15.0,True,True,,True,,,True,,False,False,,,True,,,True,True,True,,,,,,,,,,,,,,,,,,,,,,,,,
879550520112766380,https://www.airbnb.com.vn/rooms/879550520112766380,Thành phố Phú Quốc,8,10.32223,103.85318,REGULAR,,Vinpearl GrandWorld Phú Quốc,private_room,False,,/ đêm,,,3.0,True,True,True,True,,,True,True,False,,,,,,,True,,True,False,True,,True,,,,,,,,,,,,,,,,,,,,,
43964764,https://www.airbnb.com.vn/rooms/43964764,Thành phố Phú Quốc,30,10.22926,103.95357,REGULAR,,Cho thuê K’s Beach House ( homestay View biển ),private_room,False,,/ đêm,935.765,₫935.765,2.0,True,True,,True,,,True,,False,False,,,True,"4,75",40,True,True,,False,True,3,True,,,,,,,,,,,,,,,,,,,,,
815005546716320574,https://www.airbnb.com.vn/rooms/815005546716320574,Thành phố Phú Quốc,20,10.28782,103.92379,REGULAR,,Khu nghỉ dưỡng Van 's House -phu A4,entire_home,False,,/ đêm,,,2.0,True,True,True,True,True,,True,True,,,True,,True,,,,,,,,,,,,,,,,,True,,,,,,,,,,,,,
774410840141456329,https://www.airbnb.com.vn/rooms/774410840141456329,Thành phố Phú Quốc,8,10.222224,103.966656,REGULAR,,"Căn hộ có nhà bếp, máy giặt 1.6",entire_home,False,,/ đêm,960.000,₫960.000,2.0,True,True,True,True,True,,True,,False,,,,,,,True,True,,,,,,,,,,,,,,,,,,,True,,,,,,,
826503857364834925,https://www.airbnb.com.vn/rooms/826503857364834925,Thành phố Phú Quốc,16,10.1989324,103.9688554,REGULAR,,Bungalow dbl Hồ bơi & Hướng biển,private_room,False,,/ đêm,798.650,₫798.650,2.0,,True,True,True,True,True,,,,,,,True,,,True,,True,,,,,,,,,,,,,,,,,,,,,,,True,,
819048881294949175,https://www.airbnb.com.vn/rooms/819048881294949175,Phu Quoc,30,10.032412981399975,104.00524950012398,REPRESENTATIVE,,Một cửa hàng boutique ấm cúng và quyến rũ ở Sunset Town,private_room,False,,/ đêm,900.000,₫900.000,3.0,,True,True,True,,True,,,,,,,True,,,,True,True,,,,,,,True,,True,True,,,,,,,,,,,,,,,
53875618,https://www.airbnb.com.vn/rooms/53875618,Phu Quoc,19,10.326912976683722,103.86111772161703,REGULAR,,M-Homestay in Center Grand World Phú Quốc,private_room,False,,/ đêm,,,2.0,True,True,True,True,True,,,True,False,False,,,True,"4,8",5,,,,False,True,3,True,,,,,,,,,,,,,,,,,,,,,
855363468757811908,https://www.airbnb.com.vn/rooms/855363468757811908,Thành phố Phú Quốc,22,10.32799,103.86398,REGULAR,,Nhà Nguyên Căn 15 Người - 5PN,entire_home,False,,/ đêm,,,15.0,True,True,,True,,,True,,False,False,,,True,,,True,True,True,,,,,,,,,,,,,,,,,,,,,,,,,
738766790779872900,https://www.airbnb.com.vn/rooms/738766790779872900,Thành phố Phú Quốc,17,10.183698268748621,103.97156128161478,REPRESENTATIVE,,Phòng khách sạn bao gồm ăn sáng tại Phú Quốc,private_room,False,,/ đêm,1.419,₫1.419.999,4.0,,True,True,True,True,,,True,False,False,True,,,,,True,,,,,,,,,,,,,,,,,,,,,,,,,,,
827829749516300440,https://www.airbnb.com.vn/rooms/827829749516300440,Thành phố Phú Quốc,19,10.250589284328038,104.0792362685259,REGULAR,,Nhà Ông Tuấn (Nhà trên núi),entire_home,False,,/ đêm,1.376,₫1.376.471,4.0,True,True,True,True,,,,True,False,False,,True,,,,True,,,,,,,,,,,True,,,,,,,,,,,,,,,,
761998059517762687,https://www.airbnb.com.vn/rooms/761998059517762687,Thành phố Phú Quốc,30,10.12563,103.9963,REGULAR,,Biệt thự Sunny Hut_ Kosmos 4,entire_home,False,,/ đêm,,,8.0,True,True,,,True,,,,False,False,,,True,,,True,True,True,,,,,,,True,,,,,,,,,,,,,,,,,,
806254976132333171,https://www.airbnb.com.vn/rooms/806254976132333171,Thành phố Phú Quốc,16,10.2264668,103.9541161,REGULAR,,HOA Homestay Phú Quốc,private_room,False,,/ đêm,455.330,₫455.330,2.0,True,True,True,True,,,,True,False,False,,,True,,,True,True,,,,,,,,,,,,,,,,,,,,,,,,,,
42820856,https://www.airbnb.com.vn/rooms/42820856,Phu Quoc,30,10.13113,103.98628,REGULAR,,★ Phong cách sống Phương Đông Mordern ★ [FreeBike-Beach],entire_home,False,,/ đêm,910.037,₫910.037,3.0,True,True,,True,,True,True,,,,,,True,"4,5",18,True,True,True,,,,,,,,,,,,,,,,,,,,,,True,,,
567425055538230072,https://www.airbnb.com.vn/rooms/567425055538230072,Phu Quoc,11,10.1148,103.98351,REGULAR,,Phòng duyên dáng tại Amara Phuquoc - phòng cao cấp,private_room,False,,/ đêm,760.480,₫760.480,2.0,True,True,,True,True,,,True,False,False,True,,True,"4,71",7,True,,,,,,,,,,,,,,,,,,,,,,,,,,,
10127616,https://www.airbnb.com.vn/rooms/10127616,tp. Phú Quốc,30,10.261888,103.942291,REGULAR,,Sống cùng gia đình bản xứ Spring Garden 2,private_room,False,,/ đêm,319.530,₫319.530,2.0,,True,True,True,,,,,False,False,,,True,"4,94",78,True,,True,True,True,7,True,True,,,,,,,,,,,,,,,,,,,,
53301857,https://www.airbnb.com.vn/rooms/53301857,Thành phố Phú Quốc,12,10.18805,103.96916,REGULAR,,Bungalow 03 khách hướng bể bơi - NH Bungalow,entire_home,False,,/ đêm,429.083,₫429.083,3.0,,True,True,True,True,,True,True,False,False,,,,"5,0",3,,,True,,,,,,,,,,,,,,True,,,,,,,,,,,
692316835300324937,https://www.airbnb.com.vn/rooms/692316835300324937,Thành phố Phú Quốc,30,10.146493746028597,103.98336238695369,REGULAR,,"Phòng đôi, ban công rộng ngắm núi - P205",private_room,False,,/ đêm,,,2.0,True,True,True,True,True,,,True,False,False,,,True,,,,True,,,,,,,,,,,,,,,,,,,,,,,,,,
16775447,https://www.airbnb.com.vn/rooms/16775447,,21,10.18313,103.97346,REGULAR,,Le Forest Resort - Phòng Bungalow Tiêu Chuẩn,entire_home,False,,/ đêm,,,2.0,,True,,True,True,,True,,False,,,,,"4,83",78,True,,True,,,,,,,,,,,,,,True,,,,,True,,,,,True,
740953862163873035,https://www.airbnb.com.vn/rooms/740953862163873035,Thành phố Rạch Giá,5,10.01786,105.06494,REGULAR,,Phòng 2 giường đôi cửa sổ nhỏ,private_room,False,,/ đêm,582.000,₫582.000,4.0,True,True,,True,,,True,True,False,,,,,,,True,True,True,,,,,,,,,,,,,,,,,,,,True,,,,,
732240158850880785,https://www.airbnb.com.vn/rooms/732240158850880785,Thành phố Phú Quốc,26,10.226566426293813,103.9541038718277,REGULAR,,Nhà trên bãi biển Hải Âu 1_ 2,private_room,False,,/ đêm,1.141,₫1.141.177,4.0,True,True,,,,,,True,False,False,,,True,"4,71",7,True,True,True,True,True,4,True,,,,,,,,,,,,,,,,,,,,,
877807951517407257,https://www.airbnb.com.vn/rooms/877807951517407257,Phu Quoc,9,10.323184509774904,103.85327760288087,REGULAR,,Homestay GrandWorld Phú Quốc,private_room,False,,/ đêm,,,4.0,True,True,True,True,,,True,True,,,,,True,,,True,,True,False,True,,True,,,,,,,,,,,,,,,,,,,,,
614807307916050439,https://www.airbnb.com.vn/rooms/614807307916050439,Thành phố Phú Quốc,19,10.21622,103.9972,REGULAR,,"SUSALand - Nhà sân vườn, nghỉ dưỡng - TP. Phú Quốc",entire_home,False,,/ đêm,2.282,₫2.282.354,4.0,True,True,True,True,,True,True,True,False,False,,,,"5,0",3,True,,,,,,,,,,,,,,,,,,,,,,,,,,,
876323665053164238,https://www.airbnb.com.vn/rooms/876323665053164238,Thành phố Phú Quốc,12,10.188355133796355,103.9662215962805,REGULAR,,Coastal Village PQ - Kitchen,private_room,False,,/ đêm,,,4.0,,True,True,True,,,True,True,False,False,True,,True,,,True,,,,,,,,,,,,,,,,,,,,,,,,,,,
882374237363860406,https://www.airbnb.com.vn/rooms/882374237363860406,Phu Quoc,30,10.0365625,104.0094375,REGULAR,,Delux apartment in New An Thoi,private_room,False,,/ đêm,,,2.0,True,True,True,True,,,,True,,,,,,,,,True,True,False,True,,True,,,True,True,,,,,,,,,,,,,,,,,
48405777,https://www.airbnb.com.vn/rooms/48405777,Phu Quoc,29,10.30943,103.9783,REGULAR,,Biệt thự Ariel - Tất cả khu vực cho 10 khách (4BR - Hồ bơi),entire_home,False,,/ đêm,2.282,₫2.282.354,12.0,True,True,True,True,True,,True,True,False,False,,,,"5,0",3,True,,,,,,,,,,,,,,,,,,,,,,,,,,,
682684655224836890,https://www.airbnb.com.vn/rooms/682684655224836890,Thành phố Long Xuyên,24,10.37078,105.45344,REGULAR,,Phòng đôi hoàn toàn mới dành cho gia đình tại Long Xuyen,private_room,False,,/ đêm,,,4.0,True,True,True,True,,,True,True,,,,,,,1,True,True,,False,True,6,True,,,,,True,,,,,,,,,,,,,,,,
763471527416521659,https://www.airbnb.com.vn/rooms/763471527416521659,Phu Quoc,30,10.26706458657716,103.93833498231989,REGULAR,,Green- Deluxe Family Bungalow,private_room,False,,/ đêm,,,3.0,True,True,True,True,True,,True,,False,False,,,True,"4,67",3,,,,False,True,5,True,,,,,,,,,,,,,,,,,,,,,
24174526,https://www.airbnb.com.vn/rooms/24174526,Thành phố Phú Quốc,14,10.18359,103.97613,REGULAR,,Le Forest Resort - Standard Bungalow (4),entire_home,False,,/ đêm,798.824,₫798.824,2.0,,True,True,True,True,,True,,False,,,,,"4,79",53,True,,True,,,,,,,,,,,,,,True,,,,,True,,,,,,
35255644,https://www.airbnb.com.vn/rooms/35255644,Thành phố Phú Quốc,30,10.20548,103.96585,REGULAR,,Nhà dành cho gia đình,private_room,False,,/ đêm,741.765,₫741.765,16.0,True,True,,True,True,,,,False,False,,,,,,True,,True,False,True,,,,,,,,,,,,True,,,False,,,,,,,,
879913747648749249,https://www.airbnb.com.vn/rooms/879913747648749249,Thành phố Phú Quốc,30,10.13286,103.98214,REGULAR,,Hoàng Hải Villas 1 (4 phòng ngủ bể bơi chung),entire_home,False,,/ đêm,,,15.0,True,True,True,True,True,,True,,False,False,,,True,,,True,,,,,,,,,,,,,,,,,,,,,,,,,,,
819802464840844692,https://www.airbnb.com.vn/rooms/819802464840844692,Phu Quoc,9,10.02666,104.00683,REGULAR,,Phòng 2 giường đơn Duluxe 1,private_room,False,,/ đêm,,,2.0,,True,True,True,,,,True,False,,True,,True,,,True,,,,,,,,,,True,True,,,,,,,,,,,,,,,,
800329265528612448,https://www.airbnb.com.vn/rooms/800329265528612448,Thành phố Phú Quốc,28,10.116053029795104,103.98442894220352,REGULAR,,"Nhà ấm áp 5 phòng ngủ gần bãi biển,hồ bơi, nhà bếp,gara",entire_home,False,,/ đêm,2.784,₫2.784.472,10.0,True,True,True,True,True,,,,,,,True,True,,,,True,,,,,,,,,True,True,,,,,,,,,,,,,,,,
878774563327935795,https://www.airbnb.com.vn/rooms/878774563327935795,Thành phố Phú Quốc,30,10.3233,103.85389,REGULAR,,Family Suite ( FS ),private_room,False,,/ đêm,,,4.0,,True,True,True,,,,True,False,,,,True,,,True,,True,,,,,,,,,,,,,,True,,,,,,,,,,,
805328664006832411,https://www.airbnb.com.vn/rooms/805328664006832411,Thành phố Phú Quốc,30,10.11428,103.98509,REGULAR,,"Nhà nguyên căn đáng yêu 5 Phòng 5 Phòng tắm, nhà bếp, hồ bơi",entire_home,False,,/ đêm,2.784,₫2.784.472,10.0,True,True,True,True,True,,,,,,,,True,,,True,True,,,,,,,,True,,,,,,,,,,,,,,,,,,True
40833736,https://www.airbnb.com.vn/rooms/40833736,Thành phố Phú Quốc,19,10.27156,103.96413,REGULAR,,Michelia Bungalow,entire_home,False,,/ đêm,798.824,₫798.824,2.0,True,True,True,True,True,,,True,False,,,,,"4,82",11,True,True,,,,,,,,True,,,,,,,,,,,,,,,,,,
793920569641521312,https://www.airbnb.com.vn/rooms/793920569641521312,Thành phố Phú Quốc,30,10.211553409311101,103.96079048413088,REGULAR,,"Căn hộ mới, đủ tiện nghi, trung tâm, sát biển 603",entire_home,False,,/ đêm,1.450,₫1.450.000,5.0,True,True,True,True,,,True,True,False,,,,True,"5,0",5,True,,,,,,,,,,,,,,,,,,,,True,,,,,,,
752426457440677891,https://www.airbnb.com.vn/rooms/752426457440677891,Phu Quoc,9,10.244,103.94747,REGULAR,,Vườn biệt thự sang trọng,private_room,False,,/ đêm,2.054,₫2.054.119,2.0,,True,True,True,True,,,True,,,,,,,,True,,True,,,,,,,,,,,,,True,True,,,,,True,,,,,,
31493299,https://www.airbnb.com.vn/rooms/31493299,Phu Quoc,30,10.22187,104.07274,REPRESENTATIVE,,"Lotus Home, nhà gỗ chalet bình minh độc đáo ở phía Đông",entire_home,False,,/ đêm,1.120,₫1.120.000,2.0,True,True,True,True,,True,,,,,,,True,"4,94",32,True,True,True,,,,,,,True,,,,,,,,,,,,,,,,,,
709930621015844667,https://www.airbnb.com.vn/rooms/709930621015844667,Thành phố Phú Quốc,30,10.11506,103.98232,REGULAR,,(DPV1) ParkView |BAN CÔNG* cách bãi biển 50 m |Bữa sáng,private_room,False,,/ đêm,,,2.0,,True,True,True,True,,,,,,True,,True,"4,75",4,True,,True,,,,,True,,,True,,,,,,,,,,,,,,,,,
796705204605740309,https://www.airbnb.com.vn/rooms/796705204605740309,Thành phố Phú Quốc,25,10.219317300000004,103.9590764423279,REGULAR,,Phòng riêng ấm cúng ở trung tâm (Phòng 1),private_room,False,,/ đêm,490.706,₫490.706,2.0,True,True,True,True,,,,,False,False,,,True,,2,,True,True,True,True,7,True,,,,,,,,,,,,,,,,,,,,,
815579125502985402,https://www.airbnb.com.vn/rooms/815579125502985402,Thành phố Phú Quốc,13,10.201511869208252,103.96955288856579,REGULAR,,Phòng Deluxe King - Honey Moon 01,private_room,False,,/ đêm,607.711,₫607.711,2.0,,True,True,True,True,,,,False,False,True,,True,,1,,,,False,True,3,True,,,,,,,,,,,,,,,,,,,,,
822725492333283627,https://www.airbnb.com.vn/rooms/822725492333283627,Thành phố Phú Quốc,12,10.329118633235046,103.86312185118635,REGULAR,,"Hotel GrandWorld View biển,sông",private_room,False,,/ đêm,570.589,₫570.589,16.0,True,True,True,True,,True,True,True,,,,,True,,,True,,,,,,,,,,,True,,,,,,,,,,,,,,,,
758489903279089282,https://www.airbnb.com.vn/rooms/758489903279089282,Phu Quoc,30,10.03229542060607,104.00426550576587,REGULAR,,Isla Melocotón Ven67 Phú Quốc - 2PN,private_room,False,,/ đêm,2.567,₫2.567.648,4.0,True,True,True,,,,,True,,,,,True,,,True,True,True,,,,,,,True,True,,,,,,,,,,,,,,,,,
804118468377506285,https://www.airbnb.com.vn/rooms/804118468377506285,Lại Sơn,16,9.79629,104.63476,REGULAR,,Sao Biạn Homestay-Hon Đảo Sơn,private_room,False,,/ đêm,1.768,₫1.768.824,4.0,True,True,,,,,,True,False,False,,,True,,,True,,True,False,False,,,,,,,,,,,,,,,False,,,,,,,,
687606047226392257,https://www.airbnb.com.vn/rooms/687606047226392257,Thành phố Phú Quốc,23,10.224901721070871,103.96821901196982,REGULAR,,Căn hộ 3 phòng ngủ dành cho gia đình (familly),entire_home,False,,/ đêm,3.263,₫3.263.766,6.0,True,True,True,True,,,,True,False,False,,,,"4,33",6,True,True,True,,,,,,,,,,,,,,,,,,,,,,,,,
869097521177694223,https://www.airbnb.com.vn/rooms/869097521177694223,Phu Quoc,13,10.03131,104.00617,REGULAR,,Sunset homes(city view),entire_home,False,,/ đêm,,,4.0,True,True,,True,,,,,False,False,,,True,,,True,,True,,,,,,,,True,,,True,,,,,,,,,,,,,,
45297847,https://www.airbnb.com.vn/rooms/45297847,Thành phố Phú Quốc,30,10.22839,103.95629,REGULAR,,Fisherman homestay ( Phòng 2 người - A),private_room,False,,/ đêm,399.412,₫399.412,2.0,True,True,,True,,,,,False,,,,,"4,64",14,True,True,True,,,,,True,,True,,,,,,True,,,,,,,,,,,,
812886475456473399,https://www.airbnb.com.vn/rooms/812886475456473399,Phu Quoc,23,10.1150628803717,103.98268986493349,REGULAR,,ConnectingRoom/2KingBeds/BiGPool,private_room,False,,/ đêm,,,4.0,,True,,True,True,,,True,False,,,,True,,,True,,True,,,,,True,,,True,,,,,,,,,,,,,,,,,
841525676459254949,https://www.airbnb.com.vn/rooms/841525676459254949,Thành phố Phú Quốc,16,10.325849723871872,103.86106004285277,REPRESENTATIVE,,HANZ VeniceRiver Mia Grand World,private_room,False,,/ đêm,,,4.0,,True,True,True,,,,True,,,True,,,,,True,,True,,,,,True,,True,,True,,,,,,,,,,,,,,,,
42872723,https://www.airbnb.com.vn/rooms/42872723,Thành phố Phú Quốc,30,10.22724,103.97303,REGULAR,,Căn hộ 1BR ấm cúng có sân vườn thị trấn Dương Đông,entire_home,False,,/ đêm,,,2.0,True,True,,True,,,,,False,False,True,,,,,True,,True,,,,,,,,,,,,,,True,,,,,,,,,,,
713001401197560754,https://www.airbnb.com.vn/rooms/713001401197560754,Thành phố Phú Quốc,25,10.235426803045229,103.95126108080149,REGULAR,,% {smart Beach House 2_sống trên bãi biển,private_room,False,,/ đêm,1.084,₫1.084.118,3.0,True,True,,,,,,,False,False,True,,True,"5,0",5,True,True,True,,,,,True,,,,,,,,,,,,,,,,,,,,
787194110800706323,https://www.airbnb.com.vn/rooms/787194110800706323,Thành phố Phú Quốc,17,10.03505,104.01732,REGULAR,,Giảm giá 30%- Khách sạn 3 sao rẻ nhất Phú Quốc,private_room,False,,/ đêm,457.024,₫457.024,2.0,True,True,True,True,,,True,True,False,,,,True,,,True,True,,,,,,,,,,,,,,,,,,,,,,,,,,
5146653,https://www.airbnb.com.vn/rooms/5146653,Phú Quốc,30,10.23475,103.96948,REGULAR,,Biệt thự riêng Phú Quốc,entire_home,False,,/ đêm,2.321,₫2.321.964,6.0,True,True,,True,True,,,,False,False,,,,"5,0",5,True,True,True,,,,,,,,,,,,,True,,,,,,,,,,,,
50961752,https://www.airbnb.com.vn/rooms/50961752,Thành phố Phú Quốc,14,10.32917,103.86081,REGULAR,,𝗚𝗥𝗔𝗡𝗗𝗪𝗢𝗥𝗟𝗗 - Phòng studio đầy đủ tiện nghi,entire_home,False,,/ đêm,1.015,₫1.015.648,2.0,True,True,True,True,,,True,,False,False,,,True,,,True,,,,,,,,,,,,,,,,,,,,True,,,,,,,
21206658,https://www.airbnb.com.vn/rooms/21206658,Thành phố Phú Quốc,13,10.20997,103.96648,REGULAR,,Ngang Phú Quốc B,entire_home,False,,/ đêm,2.038,₫2.038.154,6.0,True,True,True,True,True,,,True,,,,,,"4,83",24,True,True,,,,,,,,,,True,,,,,,,,,True,,,,,,,
