room_id,url,rating,city,contextualPicturesCount,lat,long,listingObjType,pdpUrlType,name,roomTypeCategory,reviewCount,canInstantBook,weeklyPriceFactor,structuredStayDisplayPrice,price,price_full,maxGuestCapacity,SYSTEM_COOKING_BASICS,SYSTEM_WI_FI,SYSTEM_WORKSPACE,SYSTEM_MAPS_CAR_RENTAL,SYSTEM_WASHER,SYSTEM_DRYER,SYSTEM_SNOWFLAKE,SYSTEM_SURVEILLANCE,SYSTEM_NO_DETECTOR_CO2,SYSTEM_NO_DETECTOR_SMOKE,SYSTEM_TV,isSuperHost,isVerified,yearHosting,SYSTEM_FLOWER,SYSTEM_REFRIGERATOR,SYSTEM_NO_LOCK_ON_DOOR,SYSTEM_PETS,SYSTEM_PATIO_BALCONY,SYSTEM_GOLF,SYSTEM_BEACH,SYSTEM_POOL,SYSTEM_ELEVATOR,SYSTEM_HAIRDRYER,SYSTEM_BREAKFAST,SYSTEM_GYM,SYSTEM_VIEW_OCEAN,SYSTEM_JACUZZI,SYSTEM_LUGGAGE_DROP,SYSTEM_LOCK_ON_DOOR,SYSTEM_SMOKING_ALLOWED,SYSTEM_VIEW_CITY,SYSTEM_FIREPLACE,SYSTEM_EV_CHARGER,SYSTEM_BABY_BATH
817351471896731078,https://www.airbnb.com.vn/rooms/817351471896731078,"5,0",Thành phố Vinh,30,18.65471,105.69879,REGULAR,,BabaHouse - Homestay TP Vinh,private_room,7,False,,/ đêm,330.941,₫330.941,10.0,True,True,True,True,True,True,True,True,False,False,,,,,,,,,,,,,,,,,,,,,,,,,
873027411186669757,https://www.airbnb.com.vn/rooms/873027411186669757,,Thị xã Cửa Lò,10,18.8045393,105.7249744,REGULAR,,Kì nghỉ dưỡng thiên nhiên,entire_home,,False,,/ đêm,,,4.0,True,True,True,True,True,,True,,False,False,True,,,,,,,,,,,,,,,,,,,,,,,,
761381102431576321,https://www.airbnb.com.vn/rooms/761381102431576321,,tt. Con Cuông,14,19.05230345967727,104.8825998488418,REGULAR,,Ngôi nhà trong thị trấn nhỏ,private_room,1,False,,/ đêm,650.471,₫650.471,2.0,True,True,,True,True,,,True,False,False,,True,True,1,True,True,False,,,,,,,,,,,,,,,,,,
9620774,https://www.airbnb.com.vn/rooms/9620774,"4,82",Nghi Văn,30,18.8666,105.50183,REGULAR,,Sống cùng gia đình bản xứ tại làng 2,private_room,22,False,,/ đêm,,,5.0,True,,True,True,,True,,,False,False,True,False,True,7,,,False,True,True,,,,,,,,,,,,,,,,
885761408742627210,https://www.airbnb.com.vn/rooms/885761408742627210,,Nghi Xuân,15,18.6343845,105.7969655,REGULAR,,Palmera Villa Hoa Tiên Paradise,entire_home,,False,,/ đêm,3.423,₫3.423.531,8.0,True,True,True,True,,,,,False,False,,,,,True,,,,,True,True,True,,,,,,,,,,,,,
30942730,https://www.airbnb.com.vn/rooms/30942730,,Xuân Lâm,30,19.42416,105.76957,REGULAR,,PSA Nghi Sơn Condotel (Căn hộ),hotel_room,,False,,/ đêm,596.642,₫596.642,4.0,,True,True,True,,,True,,,,True,,,,,,,,,,,True,True,True,True,True,,,,,,,,,
19859381,https://www.airbnb.com.vn/rooms/19859381,"4,43",Thị xã Thái Hòa,28,19.29332,105.49325,REGULAR,,Nhà nghỉ nông trại sinh thái ven hồ Đông Du,private_room,21,False,,/ đêm,,,2.0,True,True,,True,,,,,False,False,,False,False,6,,,False,True,,,,True,,,,,True,True,,,,,,,
884355262648646757,https://www.airbnb.com.vn/rooms/884355262648646757,,Thị xã Cửa Lò,11,18.806030526709023,105.72314444929361,REGULAR,,Khách sạn Nhật Minh Cửa lò - phòng 502,private_room,,False,,/ đêm,,,4.0,,True,True,True,,,True,True,,,True,,,,,,,,,,True,,True,,,,True,,True,,,,,,
885762854907560135,https://www.airbnb.com.vn/rooms/885762854907560135,,Thành phố Vinh,10,18.67942,105.69483,REGULAR,,Superior Double or Twin Room,private_room,,False,,/ đêm,,,2.0,,True,True,True,,,True,True,False,,True,,,,,,,,,,,True,,,,,,,,,,,,,
878009926637901903,https://www.airbnb.com.vn/rooms/878009926637901903,,Vĩnh Long,7,18.66531,105.69046,REGULAR,,Private Bedroom - Vinh Long City,private_room,,False,,/ đêm,,,2.0,True,True,True,True,True,,,True,False,False,True,False,True,,,,,,,,,,,,,,,,,True,,,,,
877938727580602581,https://www.airbnb.com.vn/rooms/877938727580602581,,Thanh Hóa,8,19.80998,105.79608,REGULAR,,Homestay Tecco Center Point,entire_home,,False,,/ đêm,,,4.0,True,True,True,True,True,,True,True,False,,True,,,,,,,,,,,True,,,,,,,,,,,,,
857756938063307527,https://www.airbnb.com.vn/rooms/857756938063307527,,Thị xã Cửa Lò,19,18.812728007853387,105.71924854069948,REGULAR,,Loop Homestay,private_room,,False,,/ đêm,,,16.0,True,True,,True,,,,True,False,False,True,False,True,,,,False,True,,,True,,,,,,,,,,,,,,
10955215,https://www.airbnb.com.vn/rooms/10955215,"4,75",Nghi Lộc,17,18.81163,105.58277,REGULAR,,Sống cùng gia đình bản xứ tại làng nhỏ 4,entire_home,4,False,,/ đêm,401.495,₫401.495,4.0,True,,,True,,,,,False,False,True,,,,,,,True,,,,,,,True,,,,,,True,,,,
889477529214353088,https://www.airbnb.com.vn/rooms/889477529214353088,,Thanh Hoá,6,19.797008779031863,105.77321749999999,REGULAR,,Ks Newstar 73 Hoàng Văn Thụ,private_room,,False,,/ đêm,,,2.0,,True,True,True,,,True,True,False,False,True,,,,,,,,,,,,,,,,,,,,,,,,
33065304,https://www.airbnb.com.vn/rooms/33065304,"4,86",,22,19.81316,105.79356,REGULAR,,Phòng sạch sẽ & giá rẻ cho balo - Thành phố Thanh Hóa,private_room,7,False,,/ đêm,268.177,₫268.177,2.0,True,True,,True,True,True,True,,,,True,,,,,,,,,,,,True,True,,,,,,,,,,,
835813992612884785,https://www.airbnb.com.vn/rooms/835813992612884785,,Thanh Hoá,14,19.80692164119287,105.80116400639038,REGULAR,,Luxury 2br Apartment Thanh Hoa near Big C Market,entire_home,,False,,/ đêm,,,5.0,True,True,True,True,True,,True,,False,,True,,,,,True,,,,,,,,,,,,,,,,,,,
831545431149045179,https://www.airbnb.com.vn/rooms/831545431149045179,,Thị xã Cửa Lò,8,18.8045393,105.7249744,REGULAR,,Căn hộ 2116 Mường Thanh Cửa Lò,entire_home,,False,,/ đêm,909.937,₫909.937,4.0,True,True,,True,,,True,,False,,True,,,,,True,,,True,,True,True,,,,,,,,,,,,,
716364557673556774,https://www.airbnb.com.vn/rooms/716364557673556774,,Thành phố Vinh,11,18.66709,105.69323,REGULAR,,Phòng giường đôi cao cấp tại Vinh City-Near HCM Square,private_room,,False,,/ đêm,391.424,₫391.424,2.0,,True,True,True,,,True,True,False,False,True,,,,,,,,,,,,,True,,,,,,,,,,,
31052657,https://www.airbnb.com.vn/rooms/31052657,"4,85",Thành phố Thanh Hóa,14,19.81375,105.79277,REGULAR,,Khách sạn Xuân Thành - Giá rẻ nhất - Thành phố Thanh Hóa,private_room,13,False,,/ đêm,330.941,₫330.941,2.0,True,True,,True,True,True,True,,,,True,,,,,,,,,,,,True,True,,,,,,,,,,,
770692085904954431,https://www.airbnb.com.vn/rooms/770692085904954431,,Thành phố Vinh,5,18.67618,105.69522,REGULAR,,Khách sạn Sao Mai 1,private_room,,False,,/ đêm,318.388,₫318.388,2.0,,True,,True,,,True,True,False,False,True,,,,,,,,True,,,,,,,,,,True,,,,,,
644390827034258249,https://www.airbnb.com.vn/rooms/644390827034258249,,Thị xã Cửa Lò,20,18.7981399,105.7295826,REGULAR,,Căn hộ Mường Thanh Cửa Lò,entire_home,,False,,/ đêm,,,4.0,True,True,True,True,True,,True,,False,False,True,,,,,,,,True,,,,,,,,,,,,,,,,
647155207932561681,https://www.airbnb.com.vn/rooms/647155207932561681,,Thị xã Cửa Lò,20,18.8047,105.72391,REGULAR,,Romance - Vintage Homestay Cửa Lò,entire_home,,False,,/ đêm,1.917,₫1.917.177,12.0,True,True,True,,True,,True,,False,False,True,,,,,,,,,,,True,,,,,,True,,,,,,,
36453757,https://www.airbnb.com.vn/rooms/36453757,,Thái Hòa,3,19.3229,105.41945,REGULAR,,BONG MAI MOTEL - Not just a place to sleep,private_room,,False,,/ đêm,267.664,₫267.664,2.0,,True,,,,,True,,False,False,True,,,,,,,True,,,,,,,,,,,,,True,,,,
634965486242717186,https://www.airbnb.com.vn/rooms/634965486242717186,,Thị xã Cửa Lò,12,18.795233,105.728004,REGULAR,,Happy home 44 Cửa Lò,entire_home,,False,,/ đêm,844.471,₫844.471,4.0,True,True,,True,True,,True,,False,,,,,,,,,True,,,True,,True,,,,,,True,,,,,,
861250938603913014,https://www.airbnb.com.vn/rooms/861250938603913014,,Thanh Hoá,11,19.8069474,105.801038,REGULAR,,Căn hộ riêng 60 m² 2pn trung tâm TP Thanh Hóa,entire_home,,False,,/ đêm,,,5.0,True,True,True,True,,,,,False,,True,,,,True,,,True,,,True,,,,,,,,,,,True,,,
885254673306822856,https://www.airbnb.com.vn/rooms/885254673306822856,,Thanh Hoá,8,19.80677,105.80247,REGULAR,,Homestay Eurowindow Thanh Hóa,entire_home,,False,,/ đêm,,,4.0,True,True,True,,True,,True,True,False,,True,,,,,,,,,,,True,,,,,True,,,,,,,,
666541786562701598,https://www.airbnb.com.vn/rooms/666541786562701598,,Thị xã Cửa Lò,17,18.79856,105.72669,REGULAR,,Ngôi nhà hạnh phúc 77 C | a Lò nướng,entire_home,,False,,/ đêm,1.129,₫1.129.765,6.0,True,True,,True,True,,True,,False,,True,,,,,,,True,,,True,,True,,,,,,,,,,,,
30943711,https://www.airbnb.com.vn/rooms/30943711,,Xuân Lâm,23,19.42566680908203,105.76900482177734,REGULAR,,PSA Nghi Sơn Condotel (Biệt thự),entire_home,,False,,/ đêm,2.852,₫2.852.943,8.0,True,True,True,True,True,True,True,,False,,True,,,,,,,,,,,True,,,,,,,,,,,,,
36402444,https://www.airbnb.com.vn/rooms/36402444,"3,75",Thị xã Thái Hòa,12,19.31891,105.42977,REGULAR,,Bong Mai - không gian nhiệt đới,hotel_room,4,False,,/ đêm,265.246,₫265.246,8.0,,True,,,,,True,,False,False,True,,,,,True,,True,,,,,,,,,True,,,,True,,,,
9818076,https://www.airbnb.com.vn/rooms/9818076,"4,71",Nghi Văn,30,18.86253,105.50375,REGULAR,,Sống cùng gia đình bản xứ tại làng nhỏ 1,entire_home,7,False,,/ đêm,243.559,₫243.559,3.0,True,True,,True,True,True,,,False,False,True,,,,,,,True,,,,,,,,,,True,,,,,,,
24700145,https://www.airbnb.com.vn/rooms/24700145,,,9,19.2317,104.92789,REGULAR,,195 Le Thi Rieng Ben Thanh Quan 1 111,entire_home,,False,,/ đêm,267.650,₫267.650,5.0,True,True,,,True,True,True,,,,True,,,,,,,True,,,,True,True,,,,,True,,,,,,,
38464107,https://www.airbnb.com.vn/rooms/38464107,,tt. Kim Sơn,9,19.61087,104.9239,REGULAR,,Ngoại ô Pelham House,entire_home,,False,,/ đêm,2.852,₫2.852.943,10.0,True,True,,True,True,,True,,,False,True,,,,,,,True,,,,,,,True,,,,,,,,True,,
24667585,https://www.airbnb.com.vn/rooms/24667585,,,9,19.23323,104.91904,REGULAR,,148 huynh Tan Phat Phu Thuan 64,entire_home,,False,,/ đêm,267.664,₫267.664,6.0,True,True,,,True,True,True,,,,True,,,,,,,True,,,,True,True,,,,,True,,,,,,,
17823153,https://www.airbnb.com.vn/rooms/17823153,,Nghi Lộc,30,18.8139,105.56257,REGULAR,,Gia đình bản xứ tại địa phương 3,private_room,1,False,,/ đêm,267.664,₫267.664,2.0,True,True,,,,,True,,False,False,True,False,True,7,,,False,True,,,,,,,True,,,,,,True,,,,
817135928769977753,https://www.airbnb.com.vn/rooms/817135928769977753,,Quận 5,13,18.75707,105.29537,REGULAR,,CĂN HỘ đầy đủ/yên tĩnh/sạch sẽ ở Quận 5,entire_home,,False,,/ đêm,749.547,₫749.547,2.0,True,True,True,True,True,,True,True,False,,True,,,,,,,,,,,,,,,,,,,,,,,,
20702094,https://www.airbnb.com.vn/rooms/20702094,,,22,18.67579,105.6824,REGULAR,,Dong Du Eco Stay,private_room,1,False,,/ đêm,460.177,₫460.177,10.0,,True,,,,,True,,,,,False,False,5,,,False,True,,,,,,True,True,,,,,,True,,True,,
26961406,https://www.airbnb.com.vn/rooms/26961406,,Thành phố Vinh,2,18.68664,105.69192,REGULAR,,Vuong Hoan Hotel,private_room,,False,,/ đêm,308.118,₫308.118,16.0,,True,,True,,,True,,False,False,True,,,,,,,,,,,,True,True,,,,,,,,,,,
767315692742097563,https://www.airbnb.com.vn/rooms/767315692742097563,"3,8",Thành phố Vinh,5,18.67650505805822,105.69573394954205,REGULAR,,"Sao Mai hotel. Khách sạn bình dân, giá cả hợp lý.",private_room,5,False,,/ đêm,318.388,₫318.388,2.0,,True,,True,,,True,True,False,False,True,,,,,,,,True,,,,,,,,,,True,,,,,,
31060599,https://www.airbnb.com.vn/rooms/31060599,"5,0",Thành phố Thanh Hóa,21,19.81381,105.79274,REGULAR,,Xuân Thanhhotel-Phòng giá rẻ nhất dành cho lữ khách - ThanhHoa,private_room,3,False,,/ đêm,268.177,₫268.177,2.0,True,True,,True,True,True,True,,,,True,,,,,,,True,,,,,True,True,,,,,,,,,,,
42899958,https://www.airbnb.com.vn/rooms/42899958,,Tĩnh Gia,12,19.33617,105.8007,REGULAR,,Premier Room King tại Khu kinh tế Nghi Sơn,private_room,,False,,/ đêm,1.192,₫1.192.530,1.0,True,True,,True,,,True,,False,,True,,,,,,,,,,,True,,True,True,True,,,,,,,,,
29351692,https://www.airbnb.com.vn/rooms/29351692,,Thái Hòa,16,19.28675,105.4921,REGULAR,,Dong Du Banana Eco Bungalow,private_room,2,False,,/ đêm,513.530,₫513.530,10.0,True,True,,True,True,True,True,,,,True,False,False,6,,,False,True,,,,,,,,,,,,,,,True,,
867161623495956904,https://www.airbnb.com.vn/rooms/867161623495956904,,Thanh Hoá,12,19.809357287924996,105.79539155396728,REGULAR,,Căn hộ 70m2 2pn 2wc TP Thanh Hóa,entire_home,,False,,/ đêm,,,4.0,True,True,True,True,,,,,False,,True,,,,,,,True,,,True,True,,,,,,,,,,,,True,
842490257997302959,https://www.airbnb.com.vn/rooms/842490257997302959,"5,0",Thanh Hoá,5,19.80523,105.80027,REGULAR,,Euro Garden gần Chợ Big C,entire_home,3,False,,/ đêm,,,4.0,True,True,True,True,True,,True,True,,,True,,,,,,,,,,,,,,,,,,,,,,,,
840988260768387377,https://www.airbnb.com.vn/rooms/840988260768387377,,Thanh Hoá,5,19.8060625,105.7918594,REGULAR,,2BR Euro Windown Apartment,entire_home,,False,,/ đêm,,,4.0,True,True,,,,,True,True,False,,True,,,,,,,,,,,,,,,,,,,,,,,,
46691075,https://www.airbnb.com.vn/rooms/46691075,,Nghi Văn,25,18.79627,105.55028,REGULAR,,Nhà ở vùng quê ngoại ô. thanh tĩnh yên bình,private_room,,False,,/ đêm,321.187,₫321.187,4.0,True,True,,True,True,,True,,False,False,,False,True,,,,False,True,,,,,,,,,True,,,,,,,,
14629125,https://www.airbnb.com.vn/rooms/14629125,,,30,19.90919,105.51589,REGULAR,,"Việt Nam - Những viên ngọc quý ẩn giấu, ngoài đường đua bị đánh bại",private_room,2,False,,/ đêm,,,4.0,True,True,True,True,,,,,False,False,True,False,True,7,,,False,True,,,,,,,,,True,,,,,,,,
876397186593504564,https://www.airbnb.com.vn/rooms/876397186593504564,,Cửa Lò,10,18.789563858711766,105.72615522891283,REGULAR,,cửa lò Beach Vila 1,entire_home,,False,,/ đêm,,,11.0,True,True,True,True,,,True,True,False,,True,,,,,,,,,,True,,,,,,,,,,,,,,
33644221,https://www.airbnb.com.vn/rooms/33644221,,Thị xã Cửa Lò,16,18.79577,105.72785,REGULAR,,Gia đình bản xứ đầy nắng,entire_home,,False,,/ đêm,1.084,₫1.084.118,4.0,True,True,,True,,,True,,False,False,True,,,,,,,True,,,,,True,,,,,True,,,,,,,
34686366,https://www.airbnb.com.vn/rooms/34686366,,Thanh Hóa,16,19.81279,105.79372,REGULAR,,Phòng rẻ nhất với đầy đủ tiện nghi cho ba lô,hotel_room,,False,,/ đêm,399.412,₫399.412,4.0,True,True,,True,True,True,True,,,,True,,,,,,,,,,,,True,True,,,,,,,,,,,
37652305,https://www.airbnb.com.vn/rooms/37652305,,Thị xã Cửa Lò,30,18.77786,105.7389,REGULAR,,Biệt thự Mậu Xanh,entire_home,,False,,/ đêm,4.047,₫4.047.755,16.0,True,True,True,True,,,,,False,False,,,,,,,,True,,,True,,True,,,,,True,,,,,,,
858394784327122173,https://www.airbnb.com.vn/rooms/858394784327122173,,Thị xã Cửa Lò,6,18.80674,105.72232,REPRESENTATIVE,,Phòng 2 giường đơn - Khách sạn AI Cua Lò 1986,private_room,,False,,/ đêm,,,2.0,,True,True,,,,True,True,,,True,,,,,,,,,,True,,,,,,,,,,,,,,
37682648,https://www.airbnb.com.vn/rooms/37682648,,Hưng Nguyên,20,18.77816,105.73857,REGULAR,,Nhà Mậu Xanh,private_room,,False,,/ đêm,673.294,₫673.294,16.0,True,True,True,True,,,,,False,False,True,False,True,,,,False,True,,,True,,,,,,,,,,,,,,
22114601,https://www.airbnb.com.vn/rooms/22114601,,,7,19.23413,104.91841,REGULAR,,Cho thuê căn hộ La Astoria 1 full nội thất,private_room,,False,,/ đêm,2.674,₫2.674.717,4.0,True,True,,,True,True,,,False,,True,False,False,,,,False,True,,,,,True,,,,,True,,,,,,,
712493751870761994,https://www.airbnb.com.vn/rooms/712493751870761994,,Thanh Hóa,7,19.80636,105.78621,REGULAR,,Double Bungalows With Mountain View Tại Pù Luông,private_room,,False,,/ đêm,890.118,₫890.118,2.0,,True,,True,,,,,False,False,,,,,,,,,,,,,,,,,,,,,,,,,
23704940,https://www.airbnb.com.vn/rooms/23704940,,Thành phố Thanh Hoá,15,19.84982,105.78121,REGULAR,,"20 Tien Son, Ham Rong, Thanh Hoa city, Viet Nam",private_room,,False,,/ đêm,570.589,₫570.589,4.0,True,True,,True,True,,,,False,False,True,False,False,,,,False,True,,,,True,,,,,,,,,,,,,
38500379,https://www.airbnb.com.vn/rooms/38500379,,Con Cuông,8,19.03464,104.91878,REGULAR,,Sống cùng gia đình bản xứ Côn Cuông,shared_room,,False,,/ đêm,268.177,₫268.177,16.0,True,True,,True,,,,,False,False,True,,,,,,,True,,,,,,True,True,,,,,,True,,,,
879468795525737644,https://www.airbnb.com.vn/rooms/879468795525737644,,Thanh Hoá,12,19.80761,105.80137,REGULAR,,Căn hộ tiện nghi 2pn 1wc trung tâm TP Thanh Hoá,entire_home,,False,,/ đêm,,,4.0,True,True,True,True,True,,True,,False,,True,,,,,,,True,,,True,,,,,,,,,,,,,,
35045407,https://www.airbnb.com.vn/rooms/35045407,,Thành phố Vinh,1,18.65906,105.67788,REGULAR,,"Good vibes, clean and in the heart of the city",private_room,,False,,/ đêm,260.188,₫260.188,2.0,True,True,,True,True,,,,False,False,True,False,True,,,,False,,,,,,True,,,,,,,,,,,,
835080882542147303,https://www.airbnb.com.vn/rooms/835080882542147303,,Thành phố Vinh,7,18.6819003,105.6956798,REGULAR,,Ngôi nhà thân yêu,private_room,,False,,/ đêm,434.469,₫434.469,6.0,True,True,True,True,True,,,True,False,,True,False,False,,,,False,,,,,True,,,,,,,,,,,,,
24700670,https://www.airbnb.com.vn/rooms/24700670,,,9,19.23074,104.92646,REGULAR,,197 hang Buom hoan Kiem 113,entire_home,,False,,/ đêm,2.783,₫2.783.654,5.0,True,True,,,True,True,True,,,,True,,,,,,,True,,,,True,True,,,,,True,,,,,,,
36246823,https://www.airbnb.com.vn/rooms/36246823,,Xuân Thọ,7,19.84556,105.53383,REGULAR,,"Căn hộ cao cấp Xuân Thọ, Thanh Hóa",entire_home,,False,,/ đêm,910.037,₫910.037,4.0,True,True,,True,True,True,True,,,,True,,,,,,,,,,,True,,,,,,True,,,,,True,,
19163757,https://www.airbnb.com.vn/rooms/19163757,"5,0",Thành phố Thanh Hoá,13,19.79559,105.7945,REGULAR,,Căn phòng yên bình với tầm nhìn ra sông ở trung tâm!,private_room,4,False,,/ đêm,,,2.0,True,True,,True,True,True,,,False,False,True,False,False,6,,,,,,,,,,,,,True,,,True,,,,,
24696015,https://www.airbnb.com.vn/rooms/24696015,,,9,19.22996,104.92694,REGULAR,,185 hue Bui Thi Xuan hai Ba Trung 101,entire_home,,False,,/ đêm,2.783,₫2.783.654,5.0,True,True,,,True,True,True,,,,True,,,,,,,True,,,,True,True,,,,,True,,,,,,,
49471134,https://www.airbnb.com.vn/rooms/49471134,,Thị xã Cửa Lò,12,18.8028,105.72274,REGULAR,,Cửa Lò biển nhớ,private_room,,False,,/ đêm,1.016,₫1.016.788,4.0,,True,True,,,,True,,False,,True,,,,True,,,True,,,,,,True,,,,True,,,,,,,True
34102968,https://www.airbnb.com.vn/rooms/34102968,,,14,18.80486,105.72438,REGULAR,,Căn hộ khách sạn Mường Thanh,entire_home,,False,,/ đêm,,,4.0,,True,,,,,True,,False,,True,,,,,,,,,,,True,True,True,,,,,,,,,,,
24678367,https://www.airbnb.com.vn/rooms/24678367,,,9,19.23196,104.92689,REGULAR,,170 hang Trong hoan Kiem 86,entire_home,,False,,/ đêm,2.783,₫2.783.634,1.0,True,True,,,True,True,,,False,False,,,,,,,,True,,,,True,True,,,,,True,,,,,,,
42818055,https://www.airbnb.com.vn/rooms/42818055,"5,0",Tĩnh Gia,12,19.57774,105.76261,REGULAR,,wonderfull Villa Thanh Hóa với tầm nhìn ra công viên,entire_home,3,False,,/ đêm,2.301,₫2.301.870,5.0,True,True,,True,True,,True,,False,,True,,,,,,,,,,,True,,True,,,,,,,,,,,
37544413,https://www.airbnb.com.vn/rooms/37544413,,Thành phố Thanh Hoá,5,19.79505,105.78227,REGULAR,,Apartment for you,private_room,,False,,/ đêm,422.853,₫422.853,3.0,True,True,,,True,,True,,False,False,True,False,False,,,,False,,,,,,True,,,,,,,,,,True,,
24696985,https://www.airbnb.com.vn/rooms/24696985,,,9,19.23023,104.92698,REGULAR,,187 Nguyen Van Cu Nguyen Cu Trinh 103,entire_home,,False,,/ đêm,2.783,₫2.783.654,5.0,True,True,,,True,True,True,,,,True,,,,,,,True,,,,True,True,,,,,True,,,,,,,
37858178,https://www.airbnb.com.vn/rooms/37858178,,Xuân Quang,7,19.90592,105.5213,REGULAR,,Trải nghiệm cuộc sống tại địa phương,private_room,,False,,/ đêm,615.615,₫615.615,1.0,True,True,True,True,True,,,,False,False,True,False,True,,,,False,True,,,,,,,,,,,,,,,,,
24695531,https://www.airbnb.com.vn/rooms/24695531,,,9,19.23151,104.9276,REGULAR,,184 Trieu Viet Vuong Bui Thi Xuan 100,entire_home,,False,,/ đêm,2.783,₫2.783.634,5.0,True,True,,,True,True,True,,,,True,,,,,,,True,,,,True,True,,,,,True,,,,,,,
40855671,https://www.airbnb.com.vn/rooms/40855671,,H. Tân Kỳ,3,19.06117,105.26438,REGULAR,,Nhà Nghỉ GOLD,private_room,,False,,/ đêm,264.411,₫264.411,4.0,,True,,True,,,True,,False,False,,,,,,,,,,,,,,,,,,,,,,,,,
24234007,https://www.airbnb.com.vn/rooms/24234007,,Hưng Nguyên,8,18.6225,105.61675,REGULAR,,"Hưng Nguyên , Nghệ An . Nhà trọ cho 6 khách.",entire_home,,False,,/ đêm,457.699,₫457.699,1.0,True,True,,True,,True,True,,False,,True,,,,,,,,,,,,,,,,,,,,,,,,
34374555,https://www.airbnb.com.vn/rooms/34374555,,Thành phố Vinh,10,18.69113,105.65707,REGULAR,,cho thue nha 210-222 nguyen truong to,entire_home,,False,,/ đêm,267.664,₫267.664,4.0,True,True,,,True,True,,,False,False,True,,,,,,,True,,,,True,,,,,,,,,,,,,
18921538,https://www.airbnb.com.vn/rooms/18921538,,Thị xã Cửa Lò,9,18.80077,105.72736,REGULAR,,PHÒNG STUDIO 1,private_room,,False,,/ đêm,1.882,₫1.882.942,4.0,,True,,True,,,True,,False,False,True,,,,,,,,,,,True,True,True,,,,,,,,,,,
28548708,https://www.airbnb.com.vn/rooms/28548708,,Thị xã Thái Hòa,7,19.32885,105.42299,REGULAR,,Phía Chic và tối giản của Thái Hòa,entire_home,,False,,/ đêm,508.542,₫508.542,1.0,,,,True,,,True,,False,False,True,,,,,,,,,,,,,,,,,,,,,,,,
42617652,https://www.airbnb.com.vn/rooms/42617652,,Thành phố Thanh Hoá,6,19.80818,105.76782,REGULAR,,Phòng cho thuê,entire_home,,False,,/ đêm,,,2.0,True,True,,True,True,True,True,,False,False,,,,,,,,True,,,,,,True,,,,,,,,,,,
50664832,https://www.airbnb.com.vn/rooms/50664832,,Thành phố Vinh,5,18.67214,105.68806,REGULAR,,Căn hộ đáng yêu tại tp Vinh,shared_room,,False,,/ đêm,262.756,₫262.756,1.0,True,True,,True,,,True,,False,False,,,,,,,,,,,,,,,,,,,,,,,,,
24675915,https://www.airbnb.com.vn/rooms/24675915,,,9,19.2317,104.92644,REGULAR,,159 Nguyen hue Ben Nghe 75,entire_home,,False,,/ đêm,2.783,₫2.783.654,1.0,True,True,,,True,True,True,,,,True,,,,,,,True,,,,True,True,,,,,True,,,,,,,
22819465,https://www.airbnb.com.vn/rooms/22819465,,,7,19.8205,105.73164,REGULAR,,Double Lake View at TU Đông Sơn,entire_home,,False,,/ đêm,963.560,₫963.560,4.0,True,True,,True,True,True,True,,False,False,True,,,,,,,,,,,True,,,,,,,,,,,,,
24701537,https://www.airbnb.com.vn/rooms/24701537,,,9,19.23156,104.9266,REGULAR,,200 Nguyen Trai Nguyen Cu Trinh 116,entire_home,,False,,/ đêm,2.783,₫2.783.654,5.0,True,True,,,True,True,True,,,,True,,,,,,,True,,,,True,True,,,,,True,,,,,,,
21541686,https://www.airbnb.com.vn/rooms/21541686,,Kỳ Sơn,14,19.03943,105.23753,REGULAR,,Tất Tú Căn hộ tuyệt vời trong tòa nhà mới,entire_home,,False,,/ đêm,936.815,₫936.815,2.0,True,True,,True,True,True,True,,,,True,,,,,,,,,,,,True,True,,,,,,,,,True,,
22837745,https://www.airbnb.com.vn/rooms/22837745,,Thành phố Thanh Hoá,8,19.80145,105.77522,REGULAR,,"THU Garden Home stay Bỉm Sơn, thanh hóa",entire_home,,False,,/ đêm,963.560,₫963.560,6.0,True,True,,True,True,,True,,False,False,True,,,,,,,,,,,True,,,,,,,,,,,True,,
34691555,https://www.airbnb.com.vn/rooms/34691555,,Thành phố Thanh Hoá,6,19.81639,105.77067,REGULAR,,cho thue nha 194-254 ly nhan tong,entire_home,,False,,/ đêm,267.664,₫267.664,4.0,True,True,,,True,True,,,False,False,True,,,,,,,True,,,,True,,,,,,,,,,,,,
24695006,https://www.airbnb.com.vn/rooms/24695006,,,9,19.23074,104.92614,REGULAR,,181 hai Ba Trung Cua Nam hoan Kiem 97,entire_home,,False,,/ đêm,2.783,₫2.783.654,5.0,True,True,,,True,True,True,,,,True,,,,,,,True,,,,True,True,,,,,True,,,,,,,
24699631,https://www.airbnb.com.vn/rooms/24699631,,,9,19.23177,104.92611,REGULAR,,"193 Lý Thường Kiệt Cửa Nam, Hoàn Kiếm 109",entire_home,,False,,/ đêm,2.783,₫2.783.634,5.0,True,True,,,True,True,True,,,,True,,,,,,,True,,,,True,True,,,,,True,,,,,,,
27818251,https://www.airbnb.com.vn/rooms/27818251,,Quỳ Châu,6,19.55689,105.08162,REGULAR,,"Quỳ Châu, Quỳ Châu, Nghệ An,",entire_home,,False,,/ đêm,861.855,₫861.855,3.0,True,True,,True,True,True,True,,,,True,,,,,,,,,,,True,True,,,,,True,,,,,,,
24707512,https://www.airbnb.com.vn/rooms/24707512,,,9,19.23414,104.9301,REGULAR,,216 Bui Vien Pham Ngu Lao 132,entire_home,,False,,/ đêm,2.783,₫2.783.654,5.0,True,True,,,True,True,True,,,,True,,,,,,,True,,,,True,True,,,,,True,,,,,,,
22693921,https://www.airbnb.com.vn/rooms/22693921,,Thọ Thành,20,19.06128,105.54208,REGULAR,,Nhà ấm cúng tại nghệ an - Văn Hiếu,entire_home,,False,,/ đêm,1.472,₫1.472.102,4.0,True,True,,True,True,,,,False,False,True,,,,,,,,,,,True,True,,,,,True,,,,,,,
34375239,https://www.airbnb.com.vn/rooms/34375239,,Thành phố Thanh Hoá,10,19.8231,105.77416,REGULAR,,cho thue 240-264 thanh thai,entire_home,,False,,/ đêm,267.664,₫267.664,1.0,True,True,,True,,,,,False,False,True,,,,,,,True,,,,,,,,,,,,,,,,,
42899562,https://www.airbnb.com.vn/rooms/42899562,,Tĩnh Gia,16,19.33711,105.79879,REGULAR,,Garden Studio tại Khu kinh tế Nghi Sơn,private_room,,False,,/ đêm,,,1.0,True,True,,True,True,True,True,,False,,True,,,,,,,,,,,True,,True,,,,,,,,,,,
21099281,https://www.airbnb.com.vn/rooms/21099281,,Tân Sơn,15,19.18627,105.46757,REGULAR,,Đình Kún Một ngôi nhà phong cách cho Hà Nội,entire_home,,False,,/ đêm,1.338,₫1.338.270,4.0,True,True,,True,True,True,True,,,,True,,,,,,,,,,,True,True,,,,,True,,,,,,,
24697888,https://www.airbnb.com.vn/rooms/24697888,,,9,19.23084,104.92767,REGULAR,,189 hang Trong hoan Kiem 105,entire_home,,False,,/ đêm,2.783,₫2.783.654,5.0,True,True,,,True,True,True,,,,True,,,,,,,True,,,,True,True,,,,,True,,,,,,,
24700958,https://www.airbnb.com.vn/rooms/24700958,,,9,19.23164,104.92686,REGULAR,,198 hang Bac hoan Kiem 114,entire_home,,False,,/ đêm,2.783,₫2.783.654,5.0,True,True,,,True,True,True,,,,True,,,,,,,True,,,,True,True,,,,,True,,,,,,,
22972545,https://www.airbnb.com.vn/rooms/22972545,,Thị xã Cửa Lò,9,18.7973,105.7288,REGULAR,,Một căn hộ đẹp hướng ra biển,entire_home,,False,,/ đêm,1.290,₫1.290.048,4.0,True,True,,True,True,True,True,,False,,True,,,,,,,,,,,True,True,,,,,,,,,,,,
42899819,https://www.airbnb.com.vn/rooms/42899819,,Tĩnh Gia,8,19.33569,105.79929,REGULAR,,Garden Suite Khu kinh tế Nghi Sơn,private_room,,False,,/ đêm,2.111,₫2.111.177,1.0,True,True,,True,True,True,True,,False,,True,,,,,,,,,,,True,,True,,,,,,,,,,,
35563351,https://www.airbnb.com.vn/rooms/35563351,,Thành phố Thanh Hoá,4,19.80381,105.77067,REGULAR,,Chỗ Thanh Hóa,entire_home,,False,,/ đêm,427.941,₫427.941,1.0,True,True,,True,,,True,,False,False,True,,,,,,,,,,,,,,,,,,,,,,,,
34185183,https://www.airbnb.com.vn/rooms/34185183,,Thành phố Thanh Hoá,10,19.80096,105.77855,REGULAR,,cho thue nha 13 le phung hieu,entire_home,,False,,/ đêm,267.650,₫267.650,1.0,True,True,,True,,,,,False,False,True,,,,,,,True,,,,,,,,,,,,,,,,,
43377789,https://www.airbnb.com.vn/rooms/43377789,,Thành phố Vinh,7,18.68696,105.68826,REGULAR,,Nhà nhỏ - Căn hộ nhìn ra phố,entire_home,,False,,/ đêm,399.412,₫399.412,2.0,True,True,,True,True,,,,False,False,True,,,,,,,True,,,,,,,,,,True,,,,True,,,
22089445,https://www.airbnb.com.vn/rooms/22089445,,Lăng Thành,10,19.05204,105.49288,REGULAR,,Villa in Nghệ An - Hoài Thương Homestay,entire_home,,False,,/ đêm,2.837,₫2.837.164,15.0,True,True,,True,True,True,True,,,,True,,,,,,,,,,,True,,,,,,True,,,,,True,,
25359487,https://www.airbnb.com.vn/rooms/25359487,,Nghi Lộc,7,18.79914,105.66852,REGULAR,,"Mở bán Nghi Lộc, Nhà leo núi Nghệ An",entire_home,,False,,/ đêm,1.296,₫1.296.803,7.0,,,,,,,,,False,False,,,,,,,,True,,,,,,,,,,,,,,,,,
22068284,https://www.airbnb.com.vn/rooms/22068284,,,9,18.99545,105.4624,REGULAR,,Thời gian ở nhà - Bằng Cường - Vị trí tốt nhất cho khách,entire_home,,False,,/ đêm,2.810,₫2.810.426,14.0,True,True,,True,True,True,True,,,,True,,,,,,,,,,,True,True,,,,,True,,,,,,,
30254427,https://www.airbnb.com.vn/rooms/30254427,,,30,19.38694,105.74117,REGULAR,,"Khách sạn đẹp và cổ kính,hiện đại",private_room,,False,,/ đêm,342.352,₫342.352,2.0,True,True,,True,True,True,,,,,True,,,,,,,True,,,,True,True,,,,,True,,,,,,,
33974798,https://www.airbnb.com.vn/rooms/33974798,,Như Thanh,8,19.63368,105.58446,REGULAR,,Dream House VĂN SƠN,entire_home,,False,,/ đêm,1.953,₫1.953.906,4.0,True,True,,True,True,,True,,False,,True,,,,,True,,,,,,True,,,,,,,,,,,,,
21541685,https://www.airbnb.com.vn/rooms/21541685,,Tiến Thành,10,19.13926,105.4478,REGULAR,,Chung cư Sunline Thị Vân đang xây dựng tại Nghệ An,entire_home,,False,,/ đêm,936.822,₫936.822,3.0,True,True,,True,True,True,True,,,,True,,,,,,,True,,,,True,True,,,,,,,,,,,,
22572482,https://www.airbnb.com.vn/rooms/22572482,,Tràng Sơn,13,18.92844,105.30491,REGULAR,,Sống cùng gia đình bản xứ Ngọc xinh đẹp đầy đủ cho du lịch,entire_home,,False,,/ đêm,1.445,₫1.445.364,8.0,True,True,,True,True,,,,False,False,True,,,,,,,,,,,True,True,,,,,True,,,,,,,
21984678,https://www.airbnb.com.vn/rooms/21984678,,Mỹ Sơn,10,18.81743,105.39955,REGULAR,,Công Hoàng Homestay in Nghệ An,entire_home,,False,,/ đêm,1.391,₫1.391.840,8.0,True,True,,True,True,True,True,,,,True,,,,,,,True,,,,,True,,,,,True,,,,,,,
22571934,https://www.airbnb.com.vn/rooms/22571934,,Dân Lý,20,19.82548,105.64311,REGULAR,,Một tòa nhà hiện đại sang trọng - Thị Yến Lê,entire_home,,False,,/ đêm,1.472,₫1.472.109,3.0,True,True,,True,True,True,True,,,,True,,,,,,,,,,,True,True,,,,,True,,,,,,,
35655617,https://www.airbnb.com.vn/rooms/35655617,,Thành phố Vinh,10,18.65257,105.7011,REGULAR,,cho thue nha 100 nguyen du,entire_home,,False,,/ đêm,2.863,₫2.863.943,1.0,True,True,,True,,,,,False,False,True,,,,,,,True,,,,,,,,,,,,,,,,,
34257970,https://www.airbnb.com.vn/rooms/34257970,,Thành phố Vinh,10,18.6786,105.67896,REGULAR,,cho thue nha 17-11 kim dong,entire_home,,False,,/ đêm,267.664,₫267.664,1.0,True,True,,True,,,,,False,False,True,,,,,,,True,,,,,,,,,,,,,,,,,
24697462,https://www.airbnb.com.vn/rooms/24697462,,,9,19.2317,104.92649,REGULAR,,188 Cao Thang Phuong 3 104,entire_home,,False,,/ đêm,2.783,₫2.783.626,5.0,True,True,,,True,True,True,,,,True,,,,,,,True,,,,True,True,,,,,True,,,,,,,
41569531,https://www.airbnb.com.vn/rooms/41569531,,Thành phố Vinh,9,18.64923,105.66789,REGULAR,,"Ngôi nhà khá nhỏ ở Hưng Nguyên, Nghệ An",entire_home,,False,,/ đêm,588.843,₫588.843,5.0,True,True,,True,True,,True,True,,,True,,,,,,,,,,,,,True,,,,True,,,,,,,
47319421,https://www.airbnb.com.vn/rooms/47319421,,Thành phố Vinh,1,18.69273,105.67721,REGULAR,,Cho thuê nhà kinh doanh mặt đường,entire_home,,False,,/ đêm,802.991,₫802.991,1.0,,,True,True,,,,,False,False,,,,,,,,,,,,,,,,,,,,,,,,,
36886001,https://www.airbnb.com.vn/rooms/36886001,,Thị xã Cửa Lò,4,18.79445,105.72871,REGULAR,,1br - căn hộ loc chau @ cua lo sea beach,entire_home,,False,,/ đêm,912.942,₫912.942,2.0,True,True,,True,True,,True,,False,,True,,,,,,,,,,,,True,True,,,,,,,,,,,
35977273,https://www.airbnb.com.vn/rooms/35977273,,Thành phố Thanh Hoá,6,19.7812,105.77942,REGULAR,,Nhà Mễ ở thành phố Thanh Hóa,entire_home,,False,,/ đêm,869.542,₫869.542,4.0,True,True,,,,,,,False,False,True,,,,,,,,,,,,True,,,,,,,,True,,,,
23823493,https://www.airbnb.com.vn/rooms/23823493,"5,0",Thành phố Vinh,5,18.68554,105.67605,REGULAR,,Phòng tiện nghi Tecco,private_room,7,False,,/ đêm,2.034,₫2.034.213,2.0,,True,,True,,,True,,False,False,True,,,,,,,,,,,,,,,,,,,,,,,,
676247370286167598,https://www.airbnb.com.vn/rooms/676247370286167598,,Thị xã Cửa Lò,7,18.7891103,105.7141331,REGULAR,,"Nhà nhiều cây nhiều chim, vườn rộng, cách biển 1km",shared_room,,False,,/ đêm,285.294,₫285.294,1.0,True,True,,True,True,,True,True,False,False,True,,,,,,,True,,,,,,,,,,,,,,,,,
24233881,https://www.airbnb.com.vn/rooms/24233881,,Thị xã Hồng Lĩnh,8,18.55665,105.67172,REGULAR,,Chung cư Greenhill 1 giường Hồng Lĩnh,private_room,,False,,/ đêm,669.159,₫669.159,3.0,True,True,,True,True,,True,,,,True,False,False,,,,,,,,,True,True,,,,,,,True,,,,,
33902155,https://www.airbnb.com.vn/rooms/33902155,,Thành phố Thanh Hoá,10,19.7934,105.77756,REGULAR,,cho thue nha 159-155 ql47 thanh hoa,entire_home,,False,,/ đêm,2.141,₫2.141.261,1.0,True,True,,,,,True,,False,False,True,,,,,,,True,,,,,,,,,,,,,,,,,
35388209,https://www.airbnb.com.vn/rooms/35388209,,Thành phố Thanh Hoá,10,19.80407,105.76835,REGULAR,,cho thue nha 15 nguyen gia thieu,entire_home,,False,,/ đêm,2.863,₫2.863.943,1.0,True,True,,True,,,,,False,False,True,,,,,,,True,,,,,,,,,,,,,,,,,
33535383,https://www.airbnb.com.vn/rooms/33535383,,Thành phố Vinh,10,18.68014,105.70123,REGULAR,,Cho thue 58 nguyễn sĩ quế,entire_home,,False,,/ đêm,2.917,₫2.917.474,2.0,True,True,,True,,,,,False,False,True,,,,,,,True,,,,True,True,,,,,True,,,,,,,
35617830,https://www.airbnb.com.vn/rooms/35617830,,Thành phố Vinh,10,18.679,105.70274,REGULAR,,cho thue nha 10-14 phung khac khoan,entire_home,,False,,/ đêm,2.837,₫2.837.157,1.0,True,True,,True,,,,,False,False,True,,,,,,,True,,,,,,,,,,,,,,,,,
20610232,https://www.airbnb.com.vn/rooms/20610232,,Tân Kỳ,8,19.03971,105.27032,REGULAR,,Mới cải tạo BANG HƯƠNG,entire_home,,False,,/ đêm,910.037,₫910.037,6.0,True,True,,True,True,True,True,,,,True,,,,,,,,,,,,True,,,,,True,,,,,True,,
601694004871492841,https://www.airbnb.com.vn/rooms/601694004871492841,"3,67",Thành phố Vinh,8,18.66797,105.67372,REGULAR,,Chia sẻ một ngôi nhà có phòng ngủ đáng yêu với chỗ đỗ xe miễn phí,private_room,3,False,,/ đêm,658.416,₫658.416,2.0,True,True,True,True,True,,,,False,,True,False,True,1,,,False,,,,,,True,,,,,,,,,True,,,
22979861,https://www.airbnb.com.vn/rooms/22979861,,Thiệu Hòa,13,19.87385,105.60941,REGULAR,,VƯỜN VINHOMES - CĂN HỘ HỒNG LÔ,entire_home,,False,,/ đêm,963.560,₫963.560,2.0,True,True,,True,True,True,True,,,,True,,,,,,,,,,,True,True,,,,,True,,,,,,,
34759517,https://www.airbnb.com.vn/rooms/34759517,,Thành phố Thanh Hoá,6,19.85211,105.78303,REGULAR,,cho thue nha 4-52 trinh the loi,entire_home,,False,,/ đêm,2.060,₫2.060.952,1.0,True,True,,True,,,,,False,False,True,,,,,,,True,,,,,,,,,,,,,,,,,
34161529,https://www.airbnb.com.vn/rooms/34161529,,Thành phố Vinh,10,18.67131,105.68307,REGULAR,,cho thue chung cu 12-14 nguyen thi minh khai,entire_home,,False,,/ đêm,2.810,₫2.810.419,4.0,True,True,,True,True,,,,False,False,True,,,,,,,True,,,,True,,,,,,,,,,,,,
26175411,https://www.airbnb.com.vn/rooms/26175411,,Thành phố Vũng Tàu,30,19.8043,105.77395,REGULAR,,NHÀ BÌNH YÊN VŨNG TÀU,shared_room,,False,,/ đêm,3.423,₫3.423.531,10.0,True,True,,,True,True,True,,False,False,True,,,,True,,,,,,,,,,,,,True,,,,,,,
34505412,https://www.airbnb.com.vn/rooms/34505412,,Hoằng Hoá,1,19.82376,105.77695,REGULAR,,Nhà thứ hai của bạn,private_room,,False,,/ đêm,570.589,₫570.589,4.0,True,True,,,,,,,False,False,True,False,False,,,,False,True,,,,,,True,,True,,,,,,,,,
24815721,https://www.airbnb.com.vn/rooms/24815721,,Thành phố Vinh,9,18.67775,105.67385,REGULAR,,38 CH Nguyen Thai Binh 616,entire_home,,False,,/ đêm,2.141,₫2.141.267,4.0,True,True,,True,True,True,,,False,False,True,,,,,,,True,,,,,True,,,,,,,,,,,,
35387541,https://www.airbnb.com.vn/rooms/35387541,,Thành phố Thanh Hoá,10,19.80197,105.76996,REGULAR,,cho thue nha 10 ngo sy lien,entire_home,,False,,/ đêm,2.810,₫2.810.419,1.0,True,True,,True,,,,,False,False,True,,,,,,,True,,,,,,,,,,,,,,,,,
35439988,https://www.airbnb.com.vn/rooms/35439988,,Thành phố Thanh Hoá,10,19.79488,105.77427,REGULAR,,cho thue nha 27 dai lo le loi,entire_home,,False,,/ đêm,2.890,₫2.890.707,1.0,True,True,,True,,,,,False,False,True,,,,,,,True,,,,,,,,,,,,,,,,,
35212351,https://www.airbnb.com.vn/rooms/35212351,,Thành phố Thanh Hoá,10,19.83088,105.78097,REGULAR,,cho thue nha 267-229 duong ba trieu,entire_home,,False,,/ đêm,2.810,₫2.810.419,1.0,True,True,,True,,,,,False,False,True,,,,,,,True,,,,,,,,,,,,,,,,,
34885199,https://www.airbnb.com.vn/rooms/34885199,,Thành phố Thanh Hoá,10,19.82806,105.77835,REGULAR,,cho thue nha 72 nguyễn chi thanh,entire_home,,False,,/ đêm,2.890,₫2.890.727,1.0,True,True,,True,,,,,False,False,True,,,,,,,True,,,,,,,,,,,,,,,,,
34581395,https://www.airbnb.com.vn/rooms/34581395,,Thành phố Thanh Hoá,6,19.8122,105.77605,REGULAR,,cho thue nha 5 phan chau trinh,entire_home,,False,,/ đêm,2.890,₫2.890.727,1.0,True,True,,True,,,,,False,False,True,,,,,,,True,,,,,,,,,,,,,,,,,
26607935,https://www.airbnb.com.vn/rooms/26607935,,Cửa Lò,5,18.79394,105.72437,REGULAR,,Hai Hoa Hotel ,entire_home,,False,,/ đêm,1.932,₫1.932.233,4.0,True,True,,,,,,,False,False,True,,,,,,,,,,,True,True,,,True,,,,,,,True,,
23625367,https://www.airbnb.com.vn/rooms/23625367,,Thành phố Thanh Hoá,8,19.79725,105.79098,REGULAR,,"Đông Sơn, bãi biển gần, nhà phổ",entire_home,,False,,/ đêm,669.159,₫669.159,4.0,True,True,,,True,,True,,False,,True,,,,,,,,,,,,,,,,,,,,,,,,
35470477,https://www.airbnb.com.vn/rooms/35470477,,Thành phố Thanh Hoá,10,19.80266,105.76954,REGULAR,,cho thue nha 18-30 le van huu,entire_home,,False,,/ đêm,2.863,₫2.863.943,1.0,True,True,,True,,,,,False,False,True,,,,,,,True,,,,,,,,,,,,,,,,,
33859530,https://www.airbnb.com.vn/rooms/33859530,,Thành phố Vinh,10,18.68637,105.68342,REGULAR,,Cho thue nha 89-75 phung chi kien nghe an,entire_home,,False,,/ đêm,2.810,₫2.810.426,4.0,True,True,,True,True,True,,,False,False,True,,,,,,,True,,,,True,,,,,,,,,,,,,
34006492,https://www.airbnb.com.vn/rooms/34006492,,Thành phố Vinh,10,18.6905,105.66662,REGULAR,,cho thue nha 27 le ninh le loi nghe an,entire_home,,False,,/ đêm,2.810,₫2.810.426,4.0,True,True,,,True,True,,,False,False,True,,,,,,,True,,,,True,,,,,,,,,,,,,
33914668,https://www.airbnb.com.vn/rooms/33914668,,Thành phố Vinh,10,18.69778,105.70516,REGULAR,,cho thue nha 2-12 tran trung quang vinh nghe an,entire_home,,False,,/ đêm,2.810,₫2.810.426,4.0,True,True,,,True,True,,,False,False,True,,,,,,,True,,,,True,,,,,,,,,True,,,,
34154558,https://www.airbnb.com.vn/rooms/34154558,,Thành phố Thanh Hoá,10,19.79864,105.77953,REGULAR,,cho thue 1-5 nguyen huy tu,entire_home,,False,,/ đêm,2.890,₫2.890.707,4.0,True,True,,True,True,,,,False,False,True,,,,,,,True,,,,True,,,,,,,,,,,,,
34692407,https://www.airbnb.com.vn/rooms/34692407,,Thành phố Vinh,6,18.70556,105.67105,REGULAR,,cho thue nha 223-57 nguyen trai,entire_home,,False,,/ đêm,2.837,₫2.837.157,4.0,True,True,,,True,True,,,False,False,True,,,,,,,True,,,,True,,,,,,,,,,,,,
34190333,https://www.airbnb.com.vn/rooms/34190333,,Thành phố Vinh,10,18.68216,105.66534,REGULAR,,cho thue nha 117 truong chinh,entire_home,,False,,/ đêm,2.837,₫2.837.164,4.0,True,True,,,True,True,,,False,False,True,,,,,,,True,,,,True,,,,,,,,,,,,,
34005701,https://www.airbnb.com.vn/rooms/34005701,,Thành phố Thanh Hoá,10,19.81214,105.78012,REGULAR,,cho thue nha 239 truong thi thanh hoa,entire_home,,False,,/ đêm,2.810,₫2.810.419,4.0,True,True,,,True,True,,,False,False,True,,,,,,,True,,,,True,,,,,,,,,,,,,
33561597,https://www.airbnb.com.vn/rooms/33561597,,Thành phố Vinh,10,18.70278,105.68237,REGULAR,,Cho thue nha trung tam xet nghiem y khoa lac viet,entire_home,,False,,/ đêm,2.890,₫2.890.727,4.0,True,True,,True,True,True,True,,False,False,True,,,,,,,,,,,True,,,,,,,,,,,,,
34826423,https://www.airbnb.com.vn/rooms/34826423,,Thành phố Thanh Hoá,10,19.79353,105.77596,REGULAR,,cho thue nha 6-41 duong mat son,entire_home,,False,,/ đêm,2.837,₫2.837.164,4.0,True,True,,,True,True,,,False,False,True,,,,,,,True,,,,True,,,,,,,,,,,,,
25343449,https://www.airbnb.com.vn/rooms/25343449,,Thành phố Vinh,9,18.67908,105.67331,REGULAR,,"FKHG Estella 5 phòng ngủ, 2 phòng tắm 24",entire_home,,False,,/ đêm,2.890,₫2.890.707,4.0,True,True,,True,True,,,,False,False,True,,,,,,,True,,,,True,True,,,,,,,,,,,,
34822953,https://www.airbnb.com.vn/rooms/34822953,,Thành phố Thanh Hoá,10,19.82137,105.7925,REGULAR,,cho thue nha 335-297 tran hung dao,entire_home,,False,,/ đêm,2.863,₫2.863.943,4.0,True,True,,,True,True,,,False,False,True,,,,,,,True,,,,True,,,,,,,,,,,,,
34847865,https://www.airbnb.com.vn/rooms/34847865,,Thành phố Thanh Hoá,10,19.8032,105.80429,REGULAR,,cho thue nha 41 tran thu do,entire_home,,False,,/ đêm,2.810,₫2.810.426,4.0,True,True,,,True,True,,,False,False,True,,,,,,,True,,,,True,,,,,,,,,,,,,
33944271,https://www.airbnb.com.vn/rooms/33944271,,Thành phố Vinh,10,18.67497,105.68663,REGULAR,,cho thue nha 98-114 nguyen van cu nghe an,entire_home,,False,,/ đêm,2.810,₫2.810.419,4.0,True,True,,True,True,,,,False,False,True,,,,,,,True,,,,True,,,,,,,,,,,,,
36403720,https://www.airbnb.com.vn/rooms/36403720,,Thành phố Vinh,10,18.69767,105.68544,REGULAR,,cho thue nha 100-102 pham dinh toai,entire_home,,False,,/ đêm,2.837,₫2.837.157,1.0,True,True,,True,,,,,False,False,True,,,,,,,True,,,,,,,,,,,,,,,,,
22215398,https://www.airbnb.com.vn/rooms/22215398,,Mã Thành,9,19.08733,105.49388,REGULAR,,Thới Minh đầy đủ tiện nghi Hai Bdrs,entire_home,,False,,/ đêm,2.756,₫2.756.896,4.0,True,True,,True,True,,,,,False,True,,,,,,,True,,,,True,True,,,,,True,,,,,,,
34696732,https://www.airbnb.com.vn/rooms/34696732,,Thành phố Vinh,6,18.69783,105.69772,REGULAR,,cho thue nha 108-113 dang nhu mai,entire_home,,False,,/ đêm,2.890,₫2.890.696,4.0,True,True,,,True,True,,,False,False,True,,,,,,,True,,,,True,,,,,,,,,,,,,
34884313,https://www.airbnb.com.vn/rooms/34884313,,Thành phố Vinh,10,18.65017,105.69898,REGULAR,,cho thue nha 5-3 tran canh binh,entire_home,,False,,/ đêm,2.837,₫2.837.157,1.0,True,True,,True,,,,,False,False,True,,,,,,,True,,,,,,,,,,,,,True,,,,
34062815,https://www.airbnb.com.vn/rooms/34062815,,Thành phố Thanh Hoá,10,19.80936,105.78852,REGULAR,,cho thue nha 201 nguyen tinh dong huong thanh hoa,entire_home,,False,,/ đêm,2.890,₫2.890.727,4.0,True,True,,,True,True,,,False,False,True,,,,,,,True,,,,True,,,,,,,,,,,,,
25130147,https://www.airbnb.com.vn/rooms/25130147,,Thành phố Thanh Hoá,9,19.80119,105.78641,REGULAR,,Nội thất Lexing 2079,entire_home,,False,,/ đêm,2.034,₫2.034.213,4.0,True,True,,True,,,,,False,False,True,,,,,,,True,,,,True,True,,,,,True,,,,,,,
35694385,https://www.airbnb.com.vn/rooms/35694385,,Thành phố Vinh,10,18.68603,105.67982,REGULAR,,cho thue nha 61-57 nguyen sy sach,entire_home,,False,,/ đêm,2.863,₫2.863.943,1.0,True,True,,True,,,,,False,False,True,,,,,,,True,,,,,,,,,,,,,,,,,
34057840,https://www.airbnb.com.vn/rooms/34057840,,Thành phố Thanh Hoá,10,19.80442,105.7724,REGULAR,,cho thue chung cu 21 hac thanh thanh hoa,entire_home,,False,,/ đêm,2.890,₫2.890.727,4.0,True,True,,True,True,,,,False,False,True,,,,,,,True,,,,True,,,,,,,,,True,,,,
34809759,https://www.airbnb.com.vn/rooms/34809759,,Thành phố Vinh,10,18.69956,105.65137,REGULAR,,cho thue nha 253-249 nguyen truong to,entire_home,,False,,/ đêm,2.837,₫2.837.164,4.0,True,True,,,True,True,,,False,False,True,,,,,,,True,,,,True,,,,,,,,,,,,,
34845088,https://www.airbnb.com.vn/rooms/34845088,,Thành phố Vinh,10,18.71285,105.67509,REGULAR,,cho thue nha 71 mai lao bang,entire_home,,False,,/ đêm,2.810,₫2.810.419,4.0,True,True,,,True,True,,,False,False,True,,,,,,,True,,,,True,,,,,,,,,,,,,
34380173,https://www.airbnb.com.vn/rooms/34380173,,Thành phố Vinh,10,18.67557,105.69102,REGULAR,,cho thue nha 144 duong le hong phong,entire_home,,False,,/ đêm,2.837,₫2.837.181,4.0,True,True,,,True,True,,,False,False,True,,,,,,,True,,,,True,,,,,,,,,,,,,
34847110,https://www.airbnb.com.vn/rooms/34847110,,Thành phố Vinh,10,18.67014,105.68843,REGULAR,,cho thue nha 4 ho tung mau,entire_home,,False,,/ đêm,2.863,₫2.863.958,4.0,True,True,,,True,True,,,False,False,True,,,,,,,True,,,,True,,,,,,,,,True,,,,
34096975,https://www.airbnb.com.vn/rooms/34096975,,Thành phố Vinh,10,18.66254,105.68049,REGULAR,,cho thue nha 195-191 ngo duc ke nghe an,entire_home,,False,,/ đêm,2.890,₫2.890.707,4.0,True,True,,,True,True,,,False,False,True,,,,,,,True,,,,True,,,,,,,,,True,,,,
34126527,https://www.airbnb.com.vn/rooms/34126527,,Thành phố Thanh Hoá,10,19.8131,105.77881,REGULAR,,cho thue nha 268-322 truong thi thanh hoa,entire_home,,False,,/ đêm,2.810,₫2.810.426,4.0,True,True,,,True,True,,,False,False,True,,,,,,,True,,,,True,,,,,,,,,,,,,
39859226,https://www.airbnb.com.vn/rooms/39859226,,Vinh,5,18.67921,105.68035,REGULAR,,Vinh place @ Big City,entire_home,,False,,/ đêm,910.037,₫910.037,3.0,True,True,,,,,,,False,False,True,,,,,,,True,,,,,,,True,,,,,,,,,,
34789941,https://www.airbnb.com.vn/rooms/34789941,,Thành phố Vinh,8,18.68311,105.6977,REGULAR,,cho thue nha 138 duong nguyen phong sac,entire_home,,False,,/ đêm,2.837,₫2.837.157,4.0,True,True,,,True,True,,,False,False,True,,,,,,,True,,,,True,,,,,,,,,,,,,
34757709,https://www.airbnb.com.vn/rooms/34757709,,Thành phố Vinh,6,18.7064,105.67218,REGULAR,,cho thue chung cu 223-57 nguyen trai,entire_home,,False,,/ đêm,2.060,₫2.060.952,1.0,True,True,,True,,,,,False,False,True,,,,,,,True,,,,,,,,,,,,,,,,,
34851926,https://www.airbnb.com.vn/rooms/34851926,,Thành phố Thanh Hoá,10,19.81343,105.77616,REGULAR,,cho thue nha 779-765 duong ba trieu,entire_home,,False,,/ đêm,2.837,₫2.837.164,4.0,True,True,,,True,True,,,False,False,True,,,,,,,True,,,,True,,,,,,,,,,,,,
35685849,https://www.airbnb.com.vn/rooms/35685849,,Thành phố Vinh,10,18.67984,105.70185,REGULAR,,cho thue nha 58 nguyen sy que,entire_home,,False,,/ đêm,2.863,₫2.863.958,1.0,True,True,,True,,,,,False,False,True,,,,,,,True,,,,,,,,,,,,,,,,,
34020143,https://www.airbnb.com.vn/rooms/34020143,,Thành phố Vinh,10,18.71181,105.67436,REGULAR,,cho thue nha 98 mai lao bang vinh nghe an,entire_home,,False,,/ đêm,2.890,₫2.890.707,4.0,True,True,,,True,True,,,False,False,True,,,,,,,True,,,,True,,,,,,,,,,,,,
34821695,https://www.airbnb.com.vn/rooms/34821695,,Thành phố Vinh,10,18.71837,105.67314,REGULAR,,cho thue nha 414 xo viet nghe tinh,entire_home,,False,,/ đêm,2.890,₫2.890.727,1.0,True,True,,True,,,,,False,False,True,,,,,,,True,,,,,,,,,,,,,,,,,
33888045,https://www.airbnb.com.vn/rooms/33888045,,Thành phố Vinh,10,18.70106,105.68382,REGULAR,,Cho Thue Chung Cu 898 Hoang Hoan,entire_home,,False,,/ đêm,2.810,₫2.810.419,4.0,True,True,,True,,,True,,False,False,True,,,,,,,True,,,,True,,,,True,,,,,,,,,
33902874,https://www.airbnb.com.vn/rooms/33902874,,Thành phố Vinh,10,18.68422,105.68322,REGULAR,,cho thue chung cu 349 nguyen van cu nghe an,entire_home,,False,,/ đêm,2.810,₫2.810.419,4.0,True,True,,True,,,,,False,False,True,,,,,,,True,,,,True,,,True,True,,,,,,,,,
33977530,https://www.airbnb.com.vn/rooms/33977530,,Thành phố Vinh,10,18.70658,105.67948,REGULAR,,cho thue chung cu 87 xo viet nghe tinh nghe an,entire_home,,False,,/ đêm,2.890,₫2.890.696,4.0,True,True,,,True,True,,,False,False,True,,,,,,,True,,,,True,,,,,,,,,,,,,
34801385,https://www.airbnb.com.vn/rooms/34801385,,Thành phố Vinh,10,18.70509,105.67264,REGULAR,,cho thue nha 55-15 nguyen trai,entire_home,,False,,/ đêm,2.837,₫2.837.164,4.0,True,True,,,True,True,,,False,False,True,,,,,,,True,,,,True,,,,,,,,,,,,,
35496992,https://www.airbnb.com.vn/rooms/35496992,,Thành phố Vinh,10,18.70203,105.67864,REGULAR,,cho thue nha 59-33 hoang phan thai,entire_home,,False,,/ đêm,2.810,₫2.810.426,1.0,True,True,,True,,,,,False,False,True,,,,,,,True,,,,,,,,,,,,,,,,,
35728092,https://www.airbnb.com.vn/rooms/35728092,,Thành phố Vinh,10,18.71158,105.66979,REGULAR,,cho thue nha 367 nguyen trai,entire_home,,False,,/ đêm,2.863,₫2.863.936,,,,,,,,,,,,,,,,,,,,,,,,,,,,,,,,,,,,
22470767,https://www.airbnb.com.vn/rooms/22470767,,Thành phố Thanh Hoá,8,19.81348,105.77322,REGULAR,,Hoang Thang - Homestay in Thanh Hoa,entire_home,,False,,/ đêm,1.418,₫1.418.579,,,,,,,,,,,,,,,,,,,,,,,,,,,,,,,,,,,,
35427724,https://www.airbnb.com.vn/rooms/35427724,,Thành phố Vinh,9,18.69473,105.68116,REGULAR,,cho thue nha 127-109 pham dinh toai,entire_home,,False,,/ đêm,2.837,₫2.837.157,,,,,,,,,,,,,,,,,,,,,,,,,,,,,,,,,,,,
35386866,https://www.airbnb.com.vn/rooms/35386866,,Thành phố Vinh,10,18.71804,105.68357,REGULAR,,cho thue nha 56 nguyen van to,entire_home,,False,,/ đêm,2.890,₫2.890.727,,,,,,,,,,,,,,,,,,,,,,,,,,,,,,,,,,,,
33373198,https://www.airbnb.com.vn/rooms/33373198,,Thành phố Thanh Hoá,20,19.80601,105.7787,REGULAR,,"Căn hộ Horizon với 2 phòng ngủ, tại chợ",entire_home,,False,,/ đêm,2.910,₫2.910.001,,,,,,,,,,,,,,,,,,,,,,,,,,,,,,,,,,,,
35444930,https://www.airbnb.com.vn/rooms/35444930,,Thành phố Vinh,10,18.68297,105.68361,REGULAR,,cho thue nha 307 nguyen van cu,entire_home,,False,,/ đêm,2.890,₫2.890.727,,,,,,,,,,,,,,,,,,,,,,,,,,,,,,,,,,,,
34155175,https://www.airbnb.com.vn/rooms/34155175,,Thành phố Vinh,10,18.66822,105.67912,REGULAR,,cho thue 34-74 dinh cong trang,entire_home,,False,,/ đêm,2.837,₫2.837.157,,,,,,,,,,,,,,,,,,,,,,,,,,,,,,,,,,,,
34106408,https://www.airbnb.com.vn/rooms/34106408,,Thành phố Vinh,10,18.69047,105.67968,REGULAR,,cho thue nha 70 duong ha huy tap nghe an,entire_home,,False,,/ đêm,2.810,₫2.810.419,,,,,,,,,,,,,,,,,,,,,,,,,,,,,,,,,,,,
34354890,https://www.airbnb.com.vn/rooms/34354890,,Thành phố Vinh,10,18.68098,105.6812,REGULAR,,cho thue nha 28 nguyen quoc tr,entire_home,,False,,/ đêm,2.837,₫2.837.157,,,,,,,,,,,,,,,,,,,,,,,,,,,,,,,,,,,,
26612426,https://www.airbnb.com.vn/rooms/26612426,,Nghe An,10,18.68901,105.67617,REGULAR,,Lalaland Apartment,entire_home,,False,,/ đêm,1.932,₫1.932.232,,,,,,,,,,,,,,,,,,,,,,,,,,,,,,,,,,,,
35853647,https://www.airbnb.com.vn/rooms/35853647,,Thành phố Vinh,10,18.69315,105.66947,REGULAR,,cho thue nha 63-47 nguyen canh hoan,entire_home,,False,,/ đêm,2.890,₫2.890.727,,,,,,,,,,,,,,,,,,,,,,,,,,,,,,,,,,,,
