room_id,url,rating,city,contextualPicturesCount,lat,long,listingObjType,pdpUrlType,name,roomTypeCategory,reviewCount,isSuperHost,isVerified,yearHosting,canInstantBook,weeklyPriceFactor,structuredStayDisplayPrice,maxGuestCapacity,SYSTEM_LOCK_ON_DOOR,SYSTEM_FLOWER,SYSTEM_VIEW_OCEAN,SYSTEM_WI_FI,SYSTEM_WORKSPACE,SYSTEM_MAPS_CAR_RENTAL,SYSTEM_POOL,SYSTEM_SURVEILLANCE,SYSTEM_NO_DETECTOR_CO2,SYSTEM_NO_DETECTOR_SMOKE,SYSTEM_VIEW_MOUNTAIN,SYSTEM_COOKING_BASICS,SYSTEM_PETS,SYSTEM_SNOWFLAKE,SYSTEM_PATIO_BALCONY,price,price_full,SYSTEM_TV,SYSTEM_MICROWAVE,SYSTEM_BREAKFAST,SYSTEM_SMOKING_ALLOWED,SYSTEM_NO_LOCK_ON_DOOR,SYSTEM_JACUZZI,SYSTEM_HAIRDRYER,SYSTEM_BEACH,SYSTEM_FIREPIT,SYSTEM_WASHER,SYSTEM_LUGGAGE_DROP,SYSTEM_ELEVATOR,SYSTEM_DRYER,SYSTEM_EV_CHARGER,SYSTEM_BATHTUB,SYSTEM_REFRIGERATOR,SYSTEM_VIEW_CITY,SYSTEM_FIREPLACE,SYSTEM_BOAT_SAIL,SYSTEM_SKI,SYSTEM_TOYS,SYSTEM_CALENDAR,SYSTEM_GYM
720182241418513027,https://www.airbnb.com.vn/rooms/720182241418513027,"4,85",Ninh Xuân,15,20.24347196240488,105.92644208413084,REGULAR,,Nhà gỗ tại Trang An,private_room,13,True,True,9,False,,/ đêm,2.0,True,True,True,True,True,True,True,True,False,False,,,,,,,,,,,,,,,,,,,,,,,,,,,,,,
887372006198337468,https://www.airbnb.com.vn/rooms/887372006198337468,,Ninh Hải,30,20.218690015843094,105.92178960028593,REGULAR,,Tam Coc Friends Homestay,private_room,,,,,False,,/ đêm,16.0,,True,True,True,True,True,,True,False,False,True,True,,,,,,,,,,,,,,,,,,,,,,,,,,,,
881662420926620611,https://www.airbnb.com.vn/rooms/881662420926620611,,,23,20.13028,105.30878,REGULAR,,Puluong EcoArt Homestay- Nhà sàn,shared_room,,,,,False,,/ đêm,10.0,,True,,True,,True,,True,False,False,,True,True,True,True,,,,,,,,,,,,,,,,,,,,,,,,,
33296223,https://www.airbnb.com.vn/rooms/33296223,"4,86",Ninh Bình,30,20.26493,105.94218,REGULAR,,Sống cùng gia đình bản xứ - Phòng đôi có ban công,private_room,28,True,True,4,False,,/ đêm,2.0,,,,True,,True,,,,,,,True,True,,365.177,₫365.177,True,True,True,True,False,,,,,,,,,,,,,,,,,,
862778622028740408,https://www.airbnb.com.vn/rooms/862778622028740408,"5,0",Ninh Xuân,15,20.25848,105.9737,REGULAR,,Nhà gỗ hướng núi,private_room,4,True,True,9,False,,/ đêm,2.0,True,,,True,True,True,True,True,,,True,,True,True,,,,,,,,,True,,,,,,,,,,,,,,,,,
25172648,https://www.airbnb.com.vn/rooms/25172648,"4,61",Ninh Hải,25,20.2197,105.93227,REGULAR,,"Sống cùng gia đình bản xứ Amira, Phòng đôi với tầm nhìn ra vườn",private_room,71,False,True,5,False,,/ đêm,2.0,True,,,True,,True,,,False,False,,,,True,,353.765,₫353.765,,,,True,,,True,,,,,,,,,,,,,,,,
888529050987792218,https://www.airbnb.com.vn/rooms/888529050987792218,,Sầm Sơn,12,19.72929,105.89964,REGULAR,,Hotel Hương Định,private_room,,,,,False,,/ đêm,4.0,,,,True,True,True,,True,False,False,,,,True,,,,True,,,,,,True,True,,,,,,,,,,,,,,,
887998754811565087,https://www.airbnb.com.vn/rooms/887998754811565087,,Ninh Xuân,30,20.25327,105.9338,REGULAR,,TrangAn Passion Homestay Ninh Binh,entire_home,,,,,False,,/ đêm,2.0,,,True,True,,True,True,,False,False,True,,,True,,,,True,,,,,,,,True,,,,,,,,,,,,,,
46890950,https://www.airbnb.com.vn/rooms/46890950,"5,0",Trường Yên,30,20.26152,105.91293,REGULAR,,"Quang cảnh núi và hồ, bữa sáng miễn phí cho 2 người",private_room,15,,,,False,,/ đêm,2.0,,True,True,True,True,True,,True,False,False,,,True,,,,,,,,,,,,,,,,,,,,,,,,,,,
870923884722320454,https://www.airbnb.com.vn/rooms/870923884722320454,,Ninh Xuân,16,20.245288412329025,105.92602539807558,REGULAR,,Phòng 4 người nhìn ra núi,private_room,,False,True,,False,,/ đêm,2.0,True,,,True,True,True,True,,False,False,,True,,True,,,,,,,,,,,,,True,,,,,,,,,,,,,
39803953,https://www.airbnb.com.vn/rooms/39803953,"4,95",Hoa Lư,30,20.246,105.93603,REGULAR,,River-MountainView (2paxs)_NinhBinhValleMontanaHome,private_room,41,,,,False,,/ đêm,2.0,,True,True,True,,True,True,,False,False,,,,True,True,471.306,₫471.306,,,,,,,,,,,True,,,,,,,,,,,,
804265246683403719,https://www.airbnb.com.vn/rooms/804265246683403719,"4,63",Hoa Lư,24,20.21939,105.93176,REGULAR,,-10% homestay+ bữa sáng miễn phí,private_room,8,False,True,3,False,,/ đêm,2.0,True,,,True,,True,True,True,False,False,True,,True,True,,381.631,₫381.631,,,,,,,,,,,,,,,,,,,,,,,
33065304,https://www.airbnb.com.vn/rooms/33065304,"4,86",,22,19.81316,105.79356,REGULAR,,Phòng sạch sẽ & giá rẻ cho balo - Thành phố Thanh Hóa,private_room,7,,,,False,,/ đêm,2.0,,,,True,,True,,,,,,True,,True,,268.177,₫268.177,True,,,,,,True,,,True,,True,True,,,,,,,,,,
34078704,https://www.airbnb.com.vn/rooms/34078704,"4,89",,30,20.23719,105.93982,REGULAR,,Làng Ninh Bình 1990 Homestay & Bữa sáng,hotel_room,19,,,,False,,/ đêm,2.0,,,,True,True,True,,,,,,True,True,True,,267.664,₫267.664,,,,,,,,,,True,,,True,True,True,,,,,,,,
879546452889909741,https://www.airbnb.com.vn/rooms/879546452889909741,,Sầm Sơn,11,19.7444138,105.8952513,REGULAR,,Catimor Hotel Sầm Sơn - Make your feeling complete,private_room,,,,,False,,/ đêm,2.0,,,,True,True,True,,True,False,False,,True,,,,,,True,,,,,,,True,,True,,,,,,,,,,,,,
23623743,https://www.airbnb.com.vn/rooms/23623743,"4,94",,23,20.2152,105.92899,REGULAR,,Nội trợ tuyệt vời - Nhà cọ Tam Cốc - Phòng sinh đôi,private_room,53,True,True,5,False,,/ đêm,2.0,,,,,,,,,False,False,,,,True,,462.177,₫462.177,,,True,,False,,True,,,,,,,,,,,,,,,,
858571468576215713,https://www.airbnb.com.vn/rooms/858571468576215713,,Ninh Hải,5,20.219829867399117,105.93927880432037,REGULAR,,Phòng đôi có tầm nhìn ra núi,private_room,,False,False,,False,,/ đêm,2.0,True,,,True,True,True,True,True,False,False,,,,True,,,,,,,,,,True,,,,,,,,,,,,,,,,
31474367,https://www.airbnb.com.vn/rooms/31474367,"4,99",Tỉnh Ninh Bình,15,20.2159,105.93816,REGULAR,,SỐNG CÙNG GIA ĐÌNH BẢN xứ CENTER TAM COC - Phòng đôi có ban công,private_room,97,True,True,4,False,,/ đêm,2.0,True,,,True,,True,,,False,False,,True,True,True,,342.353,₫342.353,,,,,,,,,,True,,,True,,,,,,,,,,
742622306357457020,https://www.airbnb.com.vn/rooms/742622306357457020,"4,97",Ninh Xuân,13,20.24431,105.92529,REGULAR,,Bungalow tại Trang An,private_room,35,True,True,9,False,,/ đêm,2.0,True,True,,True,True,True,True,True,,,,,True,True,,,,,,,,,True,,,,,,,,,,,,,,,,,
39570968,https://www.airbnb.com.vn/rooms/39570968,"4,98",Ninh Bình,30,20.24664015886701,105.93531363774487,REGULAR,,Superiorwithbreakfast-NinhBinhValleMontanahomestay,private_room,55,,,,False,,/ đêm,2.0,,,True,True,True,True,True,,False,False,,True,,True,,471.306,₫471.306,,,,,,,,,,True,,,,,,,,,,,,,
31052657,https://www.airbnb.com.vn/rooms/31052657,"4,85",Thành phố Thanh Hóa,14,19.81375,105.79277,REGULAR,,Khách sạn Xuân Thành - Giá rẻ nhất - Thành phố Thanh Hóa,private_room,13,,,,False,,/ đêm,2.0,,,,True,,True,,,,,,True,,True,,330.941,₫330.941,True,,,,,,True,,,True,,True,True,,,,,,,,,,
37921846,https://www.airbnb.com.vn/rooms/37921846,"5,0",Ninh Bình,10,20.21622,105.93869,REGULAR,,TRUNG tâm TAMCOC - Phòng đôi sang trọng với giường King,private_room,7,True,True,4,False,,/ đêm,2.0,,,,True,,True,,,False,False,,True,True,True,,330.941,₫330.941,,,,,False,,,,,True,,,True,,,,,,,,,,
854034696516995627,https://www.airbnb.com.vn/rooms/854034696516995627,,Ninh Xuân,27,20.25338,105.93265,REGULAR,,Nhà gỗ tre có hướng nhìn ra bể bơi,private_room,,False,True,,False,,/ đêm,2.0,True,True,,True,True,True,True,True,,False,,True,,,,350.798,₫350.798,,,,,,,,,,,,,,,,,,,,,,,
38074845,https://www.airbnb.com.vn/rooms/38074845,"4,76",Ninh Bình,27,20.24541,105.93608,REGULAR,,Phòng King Sống cùng gia đình bản xứ sang trọng 1: WIFi nhanh,private_room,21,False,True,4,False,,/ đêm,2.0,True,,,True,,True,,True,False,False,True,True,True,,,,,,,,,,,,,,True,,,,,,,,,,,,,
48061820,https://www.airbnb.com.vn/rooms/48061820,"4,8",Mai Châu,12,20.643387,105.075859,REGULAR,,An Bungalow - Phong 1,private_room,5,False,False,2,False,,/ đêm,2.0,True,,,True,,True,True,True,False,False,,,,True,,416.530,₫416.530,True,,True,,,,,,,,,,,,,,,,,,,,
33296496,https://www.airbnb.com.vn/rooms/33296496,"5,0",Ninh Bình,26,20.26585,105.9422,REGULAR,,Sống cùng gia đình bản xứ của anh trai - Phòng đôi,private_room,6,True,True,4,False,,/ đêm,2.0,,True,,True,,True,,,,,,,True,True,True,341.212,₫341.212,True,,True,,False,,,,,,,,,,,True,,,,,,,
39348682,https://www.airbnb.com.vn/rooms/39348682,"4,86",Hoa Lư,30,20.2173,105.92922,REGULAR,,Biệt thự Tam Cốc Amanda,private_room,28,True,True,4,False,,/ đêm,16.0,,True,,True,,True,True,,,False,True,True,True,,,399.412,₫399.412,True,,,,False,,,,,,,,,,,,,,,,,,
33007596,https://www.airbnb.com.vn/rooms/33007596,"4,99",Hoa Lư,18,20.24383,105.93713,REGULAR,,Hà Lan Homestay - Phòng đôi với bữa sáng miễn phí,hotel_room,114,,,,False,,/ đêm,2.0,,,,True,,True,,,False,False,,,,True,,434.523,₫434.523,,,True,,,,True,,,,,,,,,,,,,,,,
25267792,https://www.airbnb.com.vn/rooms/25267792,"4,62",Hoa Lư,24,20.21823,105.9344,REGULAR,,"Sống cùng gia đình bản xứ Amira, phòng SINH đôi với tầm nhìn ra vườn",private_room,13,False,True,5,False,,/ đêm,2.0,True,,,True,,True,,,False,False,,,,True,,365.177,₫365.177,,,,,,,True,,,,,,,,,,,,,,,,
31404385,https://www.airbnb.com.vn/rooms/31404385,"4,88",Ninh Bình,30,20.2655,105.94266,REGULAR,,Sống cùng gia đình bản xứ của anh trai Ninh Bình,entire_home,42,,,,False,,/ đêm,16.0,,True,,True,True,True,,True,,,True,True,True,,,330.941,₫330.941,True,,,,,True,,,,,,,,,,,,,,,,,
17592482,https://www.airbnb.com.vn/rooms/17592482,"4,95",,30,20.32968,105.86158,REGULAR,,Đắm chìm trong Sống cùng gia đình bản xứ Ninh Bình,private_room,65,False,True,6,False,,/ đêm,5.0,,True,True,True,True,True,,,False,False,True,True,,,,,,,,,,False,,,,,,,,,,,,,,,,,,
864248797385876879,https://www.airbnb.com.vn/rooms/864248797385876879,,Thành phố Ninh Bình,6,20.2431,105.97509,REGULAR,,Double room near Ninh Binh Train Station,private_room,,,,,False,,/ đêm,2.0,,,,True,True,,,,,,,,,True,,,,True,,,,,,,,,,,,,,,,,,,,,,
763613745479437363,https://www.airbnb.com.vn/rooms/763613745479437363,"4,85",Ninh Xuân,13,20.246379941059626,105.93785662204027,REGULAR,,Phòng3 người có ban công hướng núi,private_room,13,False,True,5,False,,/ đêm,3.0,True,True,,True,True,True,,True,False,False,True,True,,,,,,,,,,,,,,,,,,,,,,,,,,,,
34880623,https://www.airbnb.com.vn/rooms/34880623,"4,68",Ninh Bình,30,20.25156,105.97397,REGULAR,,Homestay & Bữa sáng tại Làng Ninh Bình 1990,hotel_room,38,,,,False,,/ đêm,2.0,,,,True,True,True,,,,,,True,True,True,,282.769,₫282.769,,,,,,,,,,True,,,True,True,True,,,,,,,,
873050276920199445,https://www.airbnb.com.vn/rooms/873050276920199445,,Thành phố Ninh Bình,13,20.2497702,105.9776501,REGULAR,,Room with pool view in tam coc,private_room,,,,,False,,/ đêm,2.0,,,,True,,,True,,False,False,,,True,True,,456.471,₫456.471,,,,True,,,,,,,,,,,,,,,,,,,
36662774,https://www.airbnb.com.vn/rooms/36662774,"4,97",Ninh Bình,30,20.27671,105.93717,REGULAR,,Sống cùng gia đình bản xứ Tre Xanh,entire_home,36,,,,False,,/ đêm,7.0,,True,,True,True,True,,,,,True,,,True,,308.118,₫308.118,True,,,,,True,,,,True,,,,,True,,,,,,,,
36281871,https://www.airbnb.com.vn/rooms/36281871,"4,78",Ninh Bình,30,20.24205,105.97379,REGULAR,,Khách sạn Cozy Son là sự lựa chọn lý tưởng của bạn,private_room,27,,,,False,,/ đêm,16.0,,,,True,,True,,True,False,,,True,True,True,,336.647,₫336.647,True,,,,,,,,,True,,,True,,,,,,,,,,
31889325,https://www.airbnb.com.vn/rooms/31889325,"4,83",Tỉnh Ninh Bình,14,20.21649,105.93853,REGULAR,,Tam Cốc - Phòng có ban công và nhà vệ sinh bên ngoài,private_room,6,True,True,4,False,,/ đêm,2.0,,,,True,,True,,,False,False,,True,True,True,,308.118,₫308.118,,,,,False,,,,,True,,,True,,,,,,,,,,
33465325,https://www.airbnb.com.vn/rooms/33465325,,Nho Quan,19,20.24886,105.73567,REGULAR,,Cúc Phương Bungalow,private_room,,,,,False,,/ đêm,16.0,,,,True,,True,,,False,False,,True,True,True,,268.177,₫268.177,True,,,,,,,,,True,,,True,,,,,,,,,,
31060599,https://www.airbnb.com.vn/rooms/31060599,"5,0",Thành phố Thanh Hóa,21,19.81381,105.79274,REGULAR,,Xuân Thanhhotel-Phòng giá rẻ nhất dành cho lữ khách - ThanhHoa,private_room,3,,,,False,,/ đêm,2.0,,,,True,,True,,,,,,True,True,True,,268.177,₫268.177,True,,,,,,True,,,True,,True,True,,,,,,,,,,
38993778,https://www.airbnb.com.vn/rooms/38993778,"5,0",Gia Vien District,22,20.28098,105.85667,REGULAR,,Double Bungalow 2 - Garden View+ Xe đạp miễn phí,private_room,6,True,True,4,False,,/ đêm,2.0,True,,,True,,True,,,False,False,,True,True,True,,416.301,₫416.301,,,True,,,,True,,,,,,,,,,,,,,,,
33711169,https://www.airbnb.com.vn/rooms/33711169,"4,94",,30,20.263978958129883,105.95145416259766,REGULAR,,Trang An Precious Homestay,private_room,17,True,True,4,False,,/ đêm,2.0,True,,,True,True,True,,,False,False,,True,True,,,400.553,₫400.553,,,,,,,,,,True,,,True,,,,,,,,,,
33261234,https://www.airbnb.com.vn/rooms/33261234,"5,0",Ninh Bình,23,20.26435,105.94101,REGULAR,,Gia đình bản xứ của anh trai Ninh Bình - Phòng đôi,private_room,4,True,True,4,False,,/ đêm,2.0,,,,True,,True,,,,,,,True,True,,308.118,₫308.118,True,,True,True,False,,True,,,,,,,,,,,,,,,,
632009464893710003,https://www.airbnb.com.vn/rooms/632009464893710003,,Ninh Bình,30,20.23751,105.94057,REGULAR,,Làng Ninh Bình 1990 Homestay & Bữa sáng,private_room,,,,,False,,/ đêm,2.0,,,,True,True,True,,,False,False,,True,True,,,270.570,₫270.570,True,,,,,,,,,True,,,,True,,,,,,,,,
21761449,https://www.airbnb.com.vn/rooms/21761449,"4,87",Thành phố Ninh Bình,30,20.21743,105.95216,REGULAR,,Sống cùng người bản xứ mới,private_room,15,False,True,5,False,,/ đêm,9.0,,True,True,True,True,True,,True,,,,True,True,,,,,,,,,False,,,,,,,,,,,,,,,,,,
42373025,https://www.airbnb.com.vn/rooms/42373025,"4,7",Thành phố Ninh Bình,30,20.24161,105.97498,REGULAR,,Sống cùng gia đình bản xứ tại Vườn Tràng An,private_room,10,,,,False,,/ đêm,2.0,,True,,True,,True,,,,,True,True,True,True,True,399.412,₫399.412,,,,,,True,,,,True,,,,,,,,,,,,,
36892799,https://www.airbnb.com.vn/rooms/36892799,"4,33",Hoa Lư,7,20.21664,105.93671,REGULAR,,Phòng đẹp ngắm núi.,private_room,15,False,True,4,False,,/ đêm,2.0,True,,True,True,True,True,,,False,,,True,,True,,347.972,₫347.972,,,,,,,,,,,,,,,,,True,,,,,,
39804142,https://www.airbnb.com.vn/rooms/39804142,"4,95",Ninh Bình,30,20.24659,105.93525,REGULAR,,Freshair-Fishing(2paxs)_NinhBinhValleMontanaHome,private_room,19,True,True,4,False,,/ đêm,2.0,True,,True,True,True,True,True,,False,False,True,,,,,467.379,₫467.379,,,,,,,,,,,,,,,,,,,,,,,
29254098,https://www.airbnb.com.vn/rooms/29254098,"4,7",Hoa Lư District,25,20.2157,105.93647,REGULAR,,Vườn hai phòng hai giường đơn và hồ bơi - thuyền TamCoc gần đó,private_room,37,,,,False,,/ đêm,2.0,,True,,True,,,True,,False,False,,,,True,,482.683,₫482.683,,,True,,,,True,,,True,True,,,,,,,,,,,,
31473811,https://www.airbnb.com.vn/rooms/31473811,"4,88",Tỉnh Ninh Bình,17,20.21644,105.93856,REGULAR,,TRUNG tâm TAMCOC -Deluxe Phòng đôi với Garden View,private_room,33,True,True,4,False,,/ đêm,2.0,,,,True,,True,,,False,False,,True,True,True,,342.353,₫342.353,,,,,False,,,,,True,,,True,,,,,,,,,,
851715170617281326,https://www.airbnb.com.vn/rooms/851715170617281326,,Ninh Hải,30,20.21616,105.93621,REGULAR,,Hanahnas Hotel với tầm nhìn thứ hai.,private_room,,,,,False,,/ đêm,2.0,,,,True,True,True,,True,False,False,,True,,True,True,268.202,₫268.202,,,,,,,,,,True,,,,,,,,,,,,,
36832151,https://www.airbnb.com.vn/rooms/36832151,"4,86",,30,20.27667,105.9372,REGULAR,,Homestay Tre Xanh - Phòng giường cỡ King có phòng tắm riêng,private_room,7,True,True,4,False,,/ đêm,2.0,True,True,,True,True,True,,,,,True,True,,True,,308.118,₫308.118,,,,,,,,,,True,,,,,True,,,,,,,,
766123173928149312,https://www.airbnb.com.vn/rooms/766123173928149312,"4,67",Hoa Lư,6,20.21511,105.93878,REGULAR,,Phòng tiêu chuẩn King 303,private_room,3,,,,False,,/ đêm,2.0,,,,True,True,True,,True,False,False,,True,True,,,416.530,₫416.530,,,,,,True,,,,True,,,,,,,,,,,,,
34455970,https://www.airbnb.com.vn/rooms/34455970,,Cành Nàng,19,20.35243,105.21307,REGULAR,,Giường ký túc xá trong Ký túc xá PuLuong Stilted Container,hotel_room,,,,,False,,/ đêm,12.0,,True,,True,,True,,True,False,False,,,,True,,285.294,₫285.294,,,True,,,,True,,,,,,,,,,,,,,,,
23093405,https://www.airbnb.com.vn/rooms/23093405,"4,81",,30,20.2174,105.93433,REGULAR,,Khách sạn Cozy Son,hotel_room,104,,,,False,,/ đêm,16.0,,,,True,,True,,,False,False,,True,True,True,True,336.647,₫336.647,True,,,,,,,,,True,,,,,,,,,,,,,
31085311,https://www.airbnb.com.vn/rooms/31085311,"4,33",Ninh Bình,30,20.2685,105.94855,REGULAR,,Trang An Precious Homestay,private_room,6,True,True,4,False,,/ đêm,2.0,True,True,,True,True,True,True,,False,False,,True,,,,,,,,,,,,,,,,,,,,,,,,,,,,
842469953407857346,https://www.airbnb.com.vn/rooms/842469953407857346,,Ninh Xuân,14,20.247403622061928,105.93410896878662,REGULAR,,Bugalow tại Ninh Binh,private_room,,,,,False,,/ đêm,2.0,,True,,True,True,True,True,True,,,,,True,True,,,,,,,,,True,,,,,,,,,,,,True,,,,,
29245929,https://www.airbnb.com.vn/rooms/29245929,,,30,20.62668,105.21686,REGULAR,,Homestay Mường Bi - Chú Lon - Phòng đôi,private_room,2,False,False,5,False,,/ đêm,2.0,,,True,True,,True,True,,False,False,,True,True,,,,,True,,,,False,,,,,,,,,,,,,,,,,,
891154418382698357,https://www.airbnb.com.vn/rooms/891154418382698357,,Thanh Hóa,8,20.45668608950302,105.22786968788063,REGULAR,,Phòng Đôi View Núi,private_room,,,,,False,,/ đêm,2.0,,,,True,,,,True,False,False,,,,,,,,,,,,,,,,,,,,,,,,,,,,,,
24085998,https://www.airbnb.com.vn/rooms/24085998,"3,67",,30,20.21843,105.93354,REGULAR,,Sống cùng gia đình bản xứ Amira - Phòng đơn,private_room,3,False,True,5,False,,/ đêm,1.0,True,,,True,,True,,,False,False,,,True,True,,,,,,,,,,True,,,,True,,True,,,,,,,,,,
869133918664793750,https://www.airbnb.com.vn/rooms/869133918664793750,,Ninh Xuân,16,20.24881996760543,105.93234468251467,REGULAR,,Tràng An Np homestay,private_room,,False,True,,False,,/ đêm,2.0,True,,,True,True,True,True,True,False,False,,True,,True,,,,,,,,,,,,,,,,,,,,,,,,,,
40184377,https://www.airbnb.com.vn/rooms/40184377,,Mai Châu,9,20.64883,105.06893,REGULAR,,• Bungalow ở Mai Châu không có Bữa sáng & Điều hòa nhiệt độ •,private_room,,,,,False,,/ đêm,3.0,,,,True,True,True,,,False,False,,,,True,,433.647,₫433.647,,,True,,,,True,,,True,,,,,,,,,,,,,
860655986656256158,https://www.airbnb.com.vn/rooms/860655986656256158,,Ninh Bình,19,20.24617,105.93468,REGULAR,,Kong's Homestay- Free Breakfast,private_room,,,,,False,,/ đêm,2.0,,,,True,True,True,True,True,False,False,,True,,True,,,,,,,,,,,,,True,,,,,,,,,,,,,
816372573199081298,https://www.airbnb.com.vn/rooms/816372573199081298,,Ninh Hải,22,20.21894,105.91656,REGULAR,,-10% homestay+ miễn phí bữa sáng,private_room,1,False,True,3,False,,/ đêm,3.0,,True,,True,True,True,True,True,False,False,True,,,,,426.311,₫426.311,,,,,False,,,,,,,,,,,,,,,,,,
35394528,https://www.airbnb.com.vn/rooms/35394528,,Ninh Bình,30,20.25157,105.97417,REGULAR,,Phòng dành cho gia đình,private_room,,,,,False,,/ đêm,4.0,,,,True,,True,True,,,,,True,True,True,,399.412,₫399.412,,,,,,True,,,,True,,,True,True,,,,,,,,,
788963382377678571,https://www.airbnb.com.vn/rooms/788963382377678571,,Ninh Hải,30,20.206245921149016,105.93153073595228,REGULAR,,Tam Coc Việt Hà Homestay,private_room,2,True,True,4,False,,/ đêm,16.0,,True,,True,True,True,,True,False,False,True,True,,,,365.177,₫365.177,,,,,False,,,,,,,,,,,,,,,,,,
839492363847085376,https://www.airbnb.com.vn/rooms/839492363847085376,,Ninh Hải,25,20.21872,105.93435,REGULAR,,Sunny Room Garden & Pool - Thuyền TamCoc gần đó,private_room,,,,,False,,/ đêm,2.0,,True,,True,,,True,,False,False,,,,True,,483.530,₫483.530,,,True,,,,True,,,True,True,,,,,,,,,,,,
25173358,https://www.airbnb.com.vn/rooms/25173358,"4,71",Hoa Lư,23,20.21772,105.93246,REGULAR,,"Sống cùng gia đình bản xứ Amira, Phòng dành cho gia đình có tầm nhìn ra vườn",private_room,17,False,True,5,False,,/ đêm,3.0,True,,,True,,True,,,False,False,,,,True,,422.235,₫422.235,,,,True,,,True,,,,True,,,,,,,,,,,,
39801510,https://www.airbnb.com.vn/rooms/39801510,,Hoa Lư,30,20.2466,105.93523,REGULAR,,Fishing-stay(2 paxs) -NinhBinhValleMontanaHomestay,private_room,1,True,True,4,False,,/ đêm,2.0,True,True,True,True,,True,True,,False,False,,,,True,True,471.306,₫471.306,,,,,,,,,,,,,,,,,,,,,,,
14234429,https://www.airbnb.com.vn/rooms/14234429,"4,75",,14,20.07111,105.60375,REGULAR,,Mama 's Farmstay Việt Nam,shared_room,4,,,,False,,/ đêm,5.0,,,True,True,True,True,,,False,False,,True,True,,,267.664,₫267.664,True,,,,,True,,,,,,,,,,,,,,,,,
24297454,https://www.airbnb.com.vn/rooms/24297454,"4,87",,19,20.22105,105.93883,REGULAR,,"Zuli ZenHome, hướng nhìn ra núi ở Tam Cốc #1",private_room,39,,,,False,,/ đêm,2.0,,,,True,,True,,,False,False,,True,True,True,True,481.796,₫481.796,,,,True,,,True,,,,,,,,,,,,,,,,
43617150,https://www.airbnb.com.vn/rooms/43617150,"4,67",Mai Châu,27,20.65865,105.09068,REGULAR,,Phong cảnh vườn nhà đôi sinh thái Mai Châu,private_room,3,False,True,3,False,,/ đêm,2.0,True,,,True,,True,,,,False,,True,,,,481.803,₫481.803,,,True,,,True,True,,,True,,,True,,,,,,,,,,
43564496,https://www.airbnb.com.vn/rooms/43564496,,Mai Hịch,15,20.61068,104.9978,REGULAR,,Trang trại Fullzoom Mai Châu,shared_room,,,,,False,,/ đêm,2.0,,,,True,,True,True,,False,False,,True,True,,,267.664,₫267.664,,,,True,,,,,,,,,,,,,,,,,,,
46915591,https://www.airbnb.com.vn/rooms/46915591,,Thành phố Ninh Bình,30,20.261615753173828,105.91311645507812,REGULAR,,"Giường tầng, tầm nhìn ra vườn, bữa sáng miễn phí cho 4 người",private_room,,True,True,,False,,/ đêm,4.0,True,True,True,True,True,True,,,False,False,,,True,,,,,,,,,,,,,,,,,,,,,,,,,,,
39079115,https://www.airbnb.com.vn/rooms/39079115,"5,0",Gia Vien District,18,20.281305,105.857122,REGULAR,,Garden View Twin  Bungalow - Xe đạp miễn phí,private_room,5,True,True,4,False,,/ đêm,2.0,True,,,True,,True,,,False,False,,True,True,True,,,,,,True,,,,True,,,,,,,,,,,,,,,,
845949931018527565,https://www.airbnb.com.vn/rooms/845949931018527565,"4,33",Thành phố Ninh Bình,8,20.239703243485792,105.96872683614492,REGULAR,,Diep 's House - Double City View,private_room,3,False,False,4,False,,/ đêm,2.0,True,,,True,,True,,True,False,False,,,,True,,285.294,₫285.294,,,,,,,,,,,,,,,,,,,,,,,
36402444,https://www.airbnb.com.vn/rooms/36402444,"3,75",Thị xã Thái Hòa,12,19.31891,105.42977,REGULAR,,Bong Mai - không gian nhiệt đới,hotel_room,4,,,,False,,/ đêm,8.0,,,True,True,,,,,False,False,,,True,True,,265.246,₫265.246,True,,,True,,,,,,,,,,,,True,,,,,,,
32022962,https://www.airbnb.com.vn/rooms/32022962,"4,65",Hoa Lư District,13,20.21407,105.93731,REGULAR,,Nhà sinh thái Tamcoc - Coriander house,private_room,20,True,True,4,False,,/ đêm,2.0,True,True,,True,,True,,,False,False,,True,True,True,True,365.177,₫365.177,,,,,,,,,,,,,,,,,,,,,,,
830204677256386077,https://www.airbnb.com.vn/rooms/830204677256386077,,Thành phố Ninh Bình,7,20.2423634,105.9739073,REGULAR,,Phòng đơn gần Ga Ninh Bình,private_room,,,,,False,,/ đêm,1.0,,True,,True,True,,,,False,False,,,,True,True,267.577,₫267.577,True,,,,,,,,,,,,,,,True,True,,,,,,
873063806574752449,https://www.airbnb.com.vn/rooms/873063806574752449,,Thành phố Ninh Bình,10,20.21532,105.9379,REGULAR,,Tam Coc lovely - double room,private_room,,,,,False,,/ đêm,2.0,,,,True,,,True,,False,False,,,True,True,,,,,,,True,,,,,,,,,,,,,,,,,,,
769944416896513338,https://www.airbnb.com.vn/rooms/769944416896513338,,Tràng An,30,20.2614,105.9128,REGULAR,,"Giường tầng, tầm nhìn ra vườn, bữa sáng miễn phí cho 2 người",shared_room,,,,,False,,/ đêm,2.0,,,True,True,True,True,,True,False,False,,,True,True,True,281.455,₫281.455,,,,,,,,,,,,,,,,,,,,,,,
671970012881773503,https://www.airbnb.com.vn/rooms/671970012881773503,,,18,20.36439,105.26537,REGULAR,,Tầm nhìn ra núi Pu Lương - một phòng ngủ,private_room,,False,True,,False,,/ đêm,2.0,True,,,True,True,True,,True,False,False,,True,True,,,456.471,₫456.471,,,,,,,,,,True,,,,,,,,,,,,,
688788170052991136,https://www.airbnb.com.vn/rooms/688788170052991136,,Hoa Lư,30,20.214984262671557,105.93544665724039,REGULAR,,Khách sạn Hanahnas với tầm nhìn ra các con phố trên tầng hai.,private_room,,,,,False,,/ đêm,2.0,,,,True,True,True,,True,False,False,,True,,,,291.000,₫291.000,,,,,,,,,,True,,,,,,,True,,True,,,,
763301681825757665,https://www.airbnb.com.vn/rooms/763301681825757665,,Ninh Xuân,13,20.2445591,105.9259271,REGULAR,,Phòng riêng tại Trang An,private_room,1,True,True,9,False,,/ đêm,3.0,True,,,True,True,True,True,True,,,,,,True,,,,,,,,,True,,,,,True,,,,,,,True,,,,,
35403920,https://www.airbnb.com.vn/rooms/35403920,,Ninh Thắng,30,20.21853,105.94841,REGULAR,,Gấp đôi sang trọng với chế độ xem vườn,private_room,,,,,False,,/ đêm,2.0,,,,True,,True,True,,,,,True,,True,,456.471,₫456.471,True,,,,,True,,,,True,,,True,,,,,True,,,,,
698181368495449880,https://www.airbnb.com.vn/rooms/698181368495449880,,Hoa Lư,5,20.216050834437777,105.93785528093576,REGULAR,,Nhà phố vui tươi có chỗ đỗ xe miễn phí tại nơi ở,private_room,2,False,True,4,False,,/ đêm,2.0,True,,,True,True,True,,,False,,,True,,True,,320.899,₫320.899,,,,,,,,,,,,,,,,,,,,,,,
808480418599268075,https://www.airbnb.com.vn/rooms/808480418599268075,,Nà Phòn,23,20.66532,105.0594,REGULAR,,Homestay & tour du lịch Nha Tân,shared_room,,,,,False,,/ đêm,12.0,,True,,,,True,,,False,False,True,True,True,True,,376.588,₫376.588,,,,,,,,,,True,,,True,,,,,,,,,,
867125259459643616,https://www.airbnb.com.vn/rooms/867125259459643616,,Thành phố Ninh Bình,7,20.2423634,105.9739073,REGULAR,,Twin room in Ninh Binh city,private_room,,,,,False,,/ đêm,2.0,,,,True,True,True,,True,False,False,,,,True,,,,True,,,,,,,,,,,,,,,,True,,,,,,
876233926005036204,https://www.airbnb.com.vn/rooms/876233926005036204,,Thành phố Ninh Bình,6,20.25031,105.9624,REGULAR,,Aroma homestay Ninh Bình,private_room,,,,,False,,/ đêm,10.0,,True,True,True,True,True,,True,False,False,,True,,,,,,True,,,,,,,,,,,,,,,,,,,,,,
36781041,https://www.airbnb.com.vn/rooms/36781041,,Sầm Sơn,5,19.730221389411774,105.89917346835136,REGULAR,,Căn hộ sát biển sầm sơn .,private_room,,False,True,,False,,/ đêm,4.0,True,,,True,,True,,True,False,False,,,True,True,,,,True,,,,,,,,,,,,,,,True,,,,,,,
631009664320055553,https://www.airbnb.com.vn/rooms/631009664320055553,,,20,20.2644375,105.8711875,REGULAR,,*BIG PROMO! Bungalow with garden view & large bed,private_room,,False,True,,False,,/ đêm,2.0,True,True,True,True,True,True,,,False,False,,True,,,,456.471,₫456.471,,,,,,,,,,,,,,,,,,,,,,,
36453757,https://www.airbnb.com.vn/rooms/36453757,,Thái Hòa,3,19.3229,105.41945,REGULAR,,BONG MAI MOTEL - Not just a place to sleep,private_room,,,,,False,,/ đêm,2.0,,,,True,,,,,False,False,,,True,True,,267.664,₫267.664,True,,,True,,,,,,,,,,,,,,,,,,,
884661969361173718,https://www.airbnb.com.vn/rooms/884661969361173718,,Thành phố Ninh Bình,28,20.21588397124426,105.93819291114927,REGULAR,,phòng đôi,private_room,,False,True,,False,,/ đêm,2.0,True,,,True,True,True,,True,False,False,,,,True,,342.353,₫342.353,,,,,,,,,,True,,,,,,,,,,,,,
18919501,https://www.airbnb.com.vn/rooms/18919501,"4,89",Gia Vân,30,20.35525,105.8794,REGULAR,,Bungalow Double với tầm nhìn ra vườn,private_room,19,False,True,6,False,,/ đêm,2.0,True,,,True,,True,,,False,False,,True,True,,,424.974,₫424.974,True,,,,,,,,,True,,,True,,,,,,,,,,
32567294,https://www.airbnb.com.vn/rooms/32567294,,Ninh Bình,11,20.23956,105.96745,REGULAR,,Phòng lớn có ban công hoa riêng,private_room,,,,,False,,/ đêm,2.0,,,,True,,,,,False,False,,True,,True,,421.094,₫421.094,,,True,,,,True,,,True,,,,,,,,True,,,,,
623739535071488660,https://www.airbnb.com.vn/rooms/623739535071488660,,Hoa Lư,28,20.21544,105.93819,REGULAR,,Phòng giường đôi nhìn ra vườn,private_room,,False,True,,False,,/ đêm,2.0,True,,,True,,,,,False,False,,True,,True,,342.353,₫342.353,,,,,,,,,,True,,,,,,,,,,,,,
46914655,https://www.airbnb.com.vn/rooms/46914655,,Thành phố Ninh Bình,30,20.261789321899414,105.91319274902344,REGULAR,,"Quang cảnh núi và hồ, bữa sáng miễn phí cho 3 người",private_room,1,True,True,8,False,,/ đêm,3.0,True,True,True,True,True,True,,True,False,False,,,,,,,,,,,,,,,,,,,,,,,,,,,,,,
32279073,https://www.airbnb.com.vn/rooms/32279073,"5,0",Hoa Lư,30,20.248,105.92836,REGULAR,,Sống cùng gia đình bản xứ Hồ sen Tràng An,private_room,7,,,,False,,/ đêm,4.0,,,True,True,,True,,,,,,,,True,True,473.588,₫473.588,,,True,,,,True,,,,,,,,,True,,,,,,,
42405284,https://www.airbnb.com.vn/rooms/42405284,,Thành phố Ninh Bình,19,20.25225,105.94246,REGULAR,,trang một khu vườn homestay,private_room,,,,,False,,/ đêm,6.0,,,,True,True,True,True,True,,,,True,,True,True,399.412,₫399.412,,,,,,,,,,True,,,True,,,,,,,,,,
40815104,https://www.airbnb.com.vn/rooms/40815104,"4,83",Hoa Lư District,30,20.21423,105.93622,REGULAR,,Gia đình bản xứ phù hợp với gia đình Tam Cốc,private_room,6,False,True,3,False,,/ đêm,14.0,,,,True,,True,,,False,False,,True,True,True,,401.495,₫401.495,,,True,,False,,True,,,,,,,,,,,,,,,,
34689199,https://www.airbnb.com.vn/rooms/34689199,,Ninh Xuân,9,20.24368,105.93062,REGULAR,,Vườn Bí Mật Tràng An - Phòng tập thể 2,hotel_room,,,,,False,,/ đêm,2.0,,,,True,,True,True,,False,False,,,,True,,267.664,₫267.664,,,True,True,,,,,,,,,,,,,,,,,,,
43730532,https://www.airbnb.com.vn/rooms/43730532,,Hoa Lư,5,20.21722,105.93809,REGULAR,,Phòng riêng có ban công,private_room,1,False,True,4,False,,/ đêm,2.0,True,,,True,,,,True,False,False,,,,True,True,267.664,₫267.664,,,,True,,,,,,,,,,,,,,,,,,,
843911840519746734,https://www.airbnb.com.vn/rooms/843911840519746734,,Ninh Xuân,30,20.253974899539806,105.93326519472048,REGULAR,,Bungalow - Tầm nhìn hồ bơi bơi,private_room,,False,True,,False,,/ đêm,4.0,True,True,,True,True,True,True,True,,False,,True,,,,480.293,₫480.293,,,,,,,,,,,,,,,,,,,,,,,
43606769,https://www.airbnb.com.vn/rooms/43606769,,Mai Châu,27,20.6433,105.0744,REGULAR,,[KM]Mai Châu Eco Homestay- Phòng Đôi View Sân Vườn,private_room,,False,True,,False,,/ đêm,2.0,True,,,True,,True,,,,False,,True,,,,481.803,₫481.803,True,,,,,True,True,,,True,,,True,,,,,,,,,,
789039983998579066,https://www.airbnb.com.vn/rooms/789039983998579066,,Ninh Hải,30,20.20712,105.93188,REGULAR,,Thung lũng yên bình ở Tam Cốc,private_room,,True,True,,False,,/ đêm,1.0,,,,True,True,,,True,,,,True,True,,,319.530,₫319.530,,,,,False,True,,True,,True,,,,,,,,,,True,,,
39104338,https://www.airbnb.com.vn/rooms/39104338,,Gia Vien District,23,20.2809,105.85819,REGULAR,,Garden View Double Bungalow - Xe đạp miễn phí,private_room,2,True,True,4,False,,/ đêm,2.0,True,,,True,,True,,,False,False,,True,True,True,,416.301,₫416.301,,,True,,,,True,,,,,,,,,,,,,,,,
640840161299162646,https://www.airbnb.com.vn/rooms/640840161299162646,,Sầm Sơn,8,19.74554,105.86761,REGULAR,,Chào mừng bạn đến với Happy Homestay,private_room,,False,False,,False,,/ đêm,2.0,True,,,True,,True,,,False,False,,,,True,,342.353,₫342.353,,,,,,,,,,,,,,,,,,,,,,,
27064182,https://www.airbnb.com.vn/rooms/27064182,"4,92",Hoa Lư,30,20.24593,105.93314,REGULAR,,Gia đình bản xứ bên Moutain Ninh Bình - Xe đạp miễn phí,private_room,63,True,True,5,False,,/ đêm,4.0,True,True,,True,,True,,,False,False,,,,True,True,,,,,,,,,True,,,,,,,,,,,True,,,,,
38076557,https://www.airbnb.com.vn/rooms/38076557,,Ninh Bình,27,20.24674,105.93554,REGULAR,,Phòng King cho gia đình bản xứ sang trọng 2: WIFI NHANH,private_room,1,False,True,4,False,,/ đêm,2.0,True,,,True,,True,,True,False,False,True,True,True,,,450.000,₫450.000,,,,,,,,,,True,,,,,,,,,,,,,
780693137950736047,https://www.airbnb.com.vn/rooms/780693137950736047,,Ninh Xuân,19,20.2445591,105.9259271,REGULAR,,Phòng hai giường đơn nhìn ra núi,private_room,,False,True,,False,,/ đêm,3.0,True,,,True,True,True,True,True,False,False,,True,,,,,,,,,,,,,,,,,,,True,,,,,,,,,
38884717,https://www.airbnb.com.vn/rooms/38884717,"5,0",Hoa Lư,23,20.24439,105.93502,REGULAR,,Hà Lan Homestay với bữa sáng miễn phí,private_room,11,,,,False,,/ đêm,2.0,,,,True,,True,,,False,False,,,,True,,434.714,₫434.714,,,True,,,,True,,,,,,,,,,,,,,,,
32280105,https://www.airbnb.com.vn/rooms/32280105,"4,83",Hoa Lư,30,20.24816,105.92951,REGULAR,,Sống cùng gia đình bản xứ Hồ sen Tràng An,private_room,29,,,,False,,/ đêm,4.0,,,True,True,,True,,,False,False,,,,True,,473.588,₫473.588,,,True,,,,True,,,,,,,,,,,True,,,,,
24031876,https://www.airbnb.com.vn/rooms/24031876,"4,75",Sam Son,17,19.73208,105.8956,REGULAR,,Phòng cho khách du lịch ba lô tại bãi biển Sầm Sơn,private_room,4,False,True,5,False,,/ đêm,2.0,True,,,True,,True,,,False,False,,True,True,,,347.948,₫347.948,True,,,,,True,,,,True,,,,,,,,,,,,,
881852739250793128,https://www.airbnb.com.vn/rooms/881852739250793128,,Sầm Sơn,12,19.73919,105.90172,REGULAR,,"Khách sạn Vân Thành - 09694,6746",private_room,,,,,False,,/ đêm,4.0,,,,True,,True,,True,False,False,,,,,,399.412,₫399.412,True,,,,,,,True,,,,,,,,,,,,,,,
781566471976125351,https://www.airbnb.com.vn/rooms/781566471976125351,,Hoa Lư,16,20.21731122031657,105.95215841318708,REGULAR,,Phòng 201,private_room,,,,,False,,/ đêm,2.0,,,,True,,True,,True,False,False,,True,,True,,,,True,,,True,,,,,,,,,,,,,True,,,,,,
738692811601617516,https://www.airbnb.com.vn/rooms/738692811601617516,,,16,20.36454,105.26737,REGULAR,,"Nhà nghỉ thôn dã ở khu vực núi Pu Lương, Phở Doan",private_room,,False,True,,False,,/ đêm,4.0,,True,,True,,True,,,False,False,True,,,,,456.471,₫456.471,,,,,False,,,,,,,,,,,,,,,,,,
827172712820942848,https://www.airbnb.com.vn/rooms/827172712820942848,,,30,20.21247,105.92206,REGULAR,,"Phòng đôi, gần các điểm du lịch",private_room,,,,,False,,/ đêm,3.0,,,,True,True,True,True,True,False,False,,True,True,True,,462.108,₫462.108,,,,,,,,,,,,,,,,,,,,,,,
40598447,https://www.airbnb.com.vn/rooms/40598447,,Ninh Bình,30,20.236541748046875,105.94036102294922,REGULAR,,Phòng gia đình & Bữa sáng miễn phí.,private_room,,,,,False,,/ đêm,4.0,,,,True,True,True,,,,,,True,True,True,,490.706,₫490.706,True,,,,,,,,,True,,,True,True,,,,,,,,,
28235037,https://www.airbnb.com.vn/rooms/28235037,"4,63",Ninh Bình,30,20.26104,105.91154,REGULAR,,Phòng gia đình với ban công hướng núi,private_room,8,False,True,5,False,,/ đêm,4.0,True,True,True,True,True,True,,,False,False,True,True,,,,,,,,,,,,,,,,,,,,,,,,,,,,
34686366,https://www.airbnb.com.vn/rooms/34686366,,Thanh Hóa,16,19.81279,105.79372,REGULAR,,Phòng rẻ nhất với đầy đủ tiện nghi cho ba lô,hotel_room,,,,,False,,/ đêm,4.0,,,,True,,True,,,,,,True,,True,,399.412,₫399.412,True,,,,,,True,,,True,,True,True,,,,,,,,,,
781042949257928586,https://www.airbnb.com.vn/rooms/781042949257928586,,Ninh Xuân,30,20.2445591,105.9259271,REGULAR,,Phòng hai người có ban công hướng núi,private_room,1,False,True,5,False,,/ đêm,2.0,True,True,,True,True,True,,True,False,False,True,True,,,,365.177,₫365.177,,,,,,,,,,,,,,,,,,,,,,,
43343018,https://www.airbnb.com.vn/rooms/43343018,,Quảng Thái,9,19.6643,105.83712,REGULAR,,Homestay Đại Dương Xanh (Du lịch trải nghiệm),private_room,,False,True,,False,,/ đêm,16.0,,,,True,,True,True,,,False,,True,True,True,,456.471,₫456.471,,,,True,False,,True,,,,,,,,,,,,,,,,
772310514892283316,https://www.airbnb.com.vn/rooms/772310514892283316,,Ninh Hải,9,20.217807239000297,105.92855229311523,REGULAR,,bữa sáng lớn và đầy đủ,private_room,,False,True,,False,,/ đêm,2.0,,,,True,True,True,,True,False,False,,,True,True,,408.241,₫408.241,,,,,False,,True,,,,,,,,,,,,,,,,
13010528,https://www.airbnb.com.vn/rooms/13010528,"4,79",Gia Vân,25,20.35574,105.88187,REGULAR,,Sống cùng gia đình bản xứ Ninh Bình,private_room,14,False,True,7,False,,/ đêm,2.0,True,,,True,True,True,,,False,False,,True,,True,,481.803,₫481.803,,,,,,,True,,,True,,,,,,,,,,,,,
7265244,https://www.airbnb.com.vn/rooms/7265244,"4,0",Mai Chau,20,20.64797,105.06962,REGULAR,,Ký túc xá trên nhà sàn gỗ Thái Lan,entire_home,20,,,,False,,/ đêm,16.0,,True,,True,,True,,,False,False,,True,,,,428.247,₫428.247,,,True,True,,True,,,,,,,,,,,,,,,,,
27970193,https://www.airbnb.com.vn/rooms/27970193,"5,0",Hoa Lư,28,20.23311,105.93561,REGULAR,,Sống cùng gia đình bản xứ Tuyết,shared_room,3,,,,False,,/ đêm,11.0,,,,True,,True,,,False,False,,True,True,True,,342.353,₫342.353,,,,,,True,,,,True,,,True,,,,,,,,,,
24367961,https://www.airbnb.com.vn/rooms/24367961,"5,0",Hoa Lư,24,20.21917,105.93872,REGULAR,,Phòng đôi Zen có tầm nhìn thoáng đãng tại Tam Cốc,private_room,9,,,,False,,/ đêm,2.0,,,,True,,,,,False,False,,True,,True,,481.803,₫481.803,,,True,,,,True,,,,,,,,,,,,,,,,
789672113424123056,https://www.airbnb.com.vn/rooms/789672113424123056,,Ninh Xuân,10,20.244495712305145,105.9256113320589,REGULAR,,Phòng một giường đơn có ban công,private_room,,False,True,,False,,/ đêm,2.0,True,True,,True,True,True,,True,False,False,True,True,,,,365.177,₫365.177,,,,,,,,,,,,,,,,,,,,,,,
40014706,https://www.airbnb.com.vn/rooms/40014706,,Thanh Hoá ,16,20.44729,105.15551,REGULAR,,Puluong Hideaway Homestay & Restaurant,shared_room,,,,,False,,/ đêm,15.0,,,,True,,,,,False,False,,,True,,,285.294,₫285.294,,,True,True,,,True,,,,,,,,,,,,,,,,
18102603,https://www.airbnb.com.vn/rooms/18102603,"4,14",Chiềng Châu,4,20.65171,105.07509,REGULAR,,Phòng riêng tại gia đình bản xứ Hòa Bàn với tính năng mã hóa không khí,private_room,14,False,True,6,False,,/ đêm,2.0,True,,,True,,True,,,False,,,True,True,,True,481.803,₫481.803,,,True,,,,,,,True,,,,,,,,,,,True,,
24357601,https://www.airbnb.com.vn/rooms/24357601,"4,36",Tam Coc,18,20.21717,105.93925,REGULAR,,"Giường tầng cho phụ nữ tại Zuli Zen Home, Tam Cốc",shared_room,11,,,,False,,/ đêm,1.0,,,,True,,True,,,False,False,,True,True,True,,268.177,₫268.177,,,True,,,,True,,,,,,,,,,,,,,,,
39782456,https://www.airbnb.com.vn/rooms/39782456,,Thành phố Ninh Bình,30,20.263776779174805,105.95124053955078,REGULAR,,Lớp học nấu ăn truyền thống Việt Nam,private_room,,,,,False,,/ đêm,8.0,,,True,True,True,True,,True,,False,,True,True,,,405.688,₫405.688,,,,,,True,,,,True,,,,,,,,,,,,,
43674973,https://www.airbnb.com.vn/rooms/43674973,,Hoa Lư,12,20.2121772,105.9368627,REGULAR,,Phòng ba với 2 giường,private_room,,False,True,,False,,/ đêm,6.0,,True,True,True,True,,,True,False,False,,True,,,,308.118,₫308.118,,,,,False,,,,,,,,,,,,,,,,,,
566440135707321830,https://www.airbnb.com.vn/rooms/566440135707321830,,Thành phố Ninh Bình,30,20.24094,105.95343,REGULAR,,Ninh Bình Hoanggianghomestay,private_room,,False,True,,False,,/ đêm,16.0,,True,True,True,True,,,True,False,False,,True,,,,299.553,₫299.553,,,,,False,,,,,,,,,,,,,,,,,,
868845644019597201,https://www.airbnb.com.vn/rooms/868845644019597201,,Sầm Sơn,5,19.74522322930182,105.9059754907379,REGULAR,,Khách sạn Phú Hồng 1 - Phòng Gia đình,private_room,,,,,False,,/ đêm,5.0,,,,True,True,True,,True,False,,,,,True,,,,True,,,,,,,True,,,,True,,True,,,,,,,,,
867136288704697374,https://www.airbnb.com.vn/rooms/867136288704697374,,Thành phố Ninh Bình,7,20.24354,105.97358,REGULAR,,Triple room,private_room,,,,,False,,/ đêm,2.0,,,,True,True,True,,True,False,False,,,,True,,,,True,,,,,,,,,,,,,,,,,,,,,,
41135998,https://www.airbnb.com.vn/rooms/41135998,,Gia Lập,18,20.35739,105.8919,REGULAR,,Hoang Lam Homestay,private_room,,,,,False,,/ đêm,16.0,,True,True,True,,True,,,False,False,,,True,True,,272.741,₫272.741,,,True,,,,,,,,,,,,,,,,,,,True,
10686354,https://www.airbnb.com.vn/rooms/10686354,"5,0",,6,20.27831,105.86961,REGULAR,,Phòng tắm dùng chung và ngắm núi đôi,private_room,57,False,True,7,False,,/ đêm,2.0,,True,,True,,True,,,False,False,,True,,True,,469.091,₫469.091,True,,,,False,,,,,True,,,,,,,,,,,,,
39615999,https://www.airbnb.com.vn/rooms/39615999,,H. Hoa Lư,9,20.23558,105.93975,REGULAR,,Ninh Binh Village 1990 Homestay,private_room,,,,,False,,/ đêm,2.0,,True,,True,,True,,,False,False,,True,,True,,294.401,₫294.401,,,,,,,True,,,True,,,True,,,,,,,,,,
766112220820695893,https://www.airbnb.com.vn/rooms/766112220820695893,"3,88",Hoa Lư,7,20.21552,105.93938,REGULAR,,Giao hưởng 9 Tam Cốc - Phòng King tiêu chuẩn 203,private_room,8,,,,False,,/ đêm,2.0,,,,True,True,True,True,True,False,False,,True,True,,,399.412,₫399.412,,,,,,,,,,True,,,,,,,,,,,,,
843399256824291763,https://www.airbnb.com.vn/rooms/843399256824291763,,Gia Sinh,30,20.29237,105.87208,REGULAR,,phòng Deluxe giường đôi,private_room,,,,,False,,/ đêm,2.0,,True,True,True,True,True,,True,False,False,,True,,,,410.824,₫410.824,,,,,,,,,,,,,,,,,,,,,,,
43436805,https://www.airbnb.com.vn/rooms/43436805,,Mai Châu,30,20.65012,105.07206,REGULAR,,Mai Chau Eco Homestay - Phòng Giường Chung 10n,shared_room,,,,,False,,/ đêm,10.0,,,,True,,True,,,False,False,,True,,True,,294.401,₫294.401,True,,,,,True,,,,True,,,True,,,,,,,,,,
692924686967316796,https://www.airbnb.com.vn/rooms/692924686967316796,,,30,20.251928651247656,105.93706876324921,REGULAR,,Phòng riêng view núi tại Ninh Bình,private_room,,,,,False,,/ đêm,16.0,,True,True,True,True,True,True,True,False,False,,,,,,393.706,₫393.706,,,,,,,,,,True,,,,,,,,,,,,,
725288121023510916,https://www.airbnb.com.vn/rooms/725288121023510916,,Hoa Lư,30,20.20663,105.94028,REGULAR,,Biệt thự Loan Tam Cốc,private_room,1,True,True,4,False,,/ đêm,16.0,,True,,True,True,True,True,True,False,,,True,True,,,399.412,₫399.412,,,,,False,,,,,,,,,,,,,,,,,,
630288263934683733,https://www.airbnb.com.vn/rooms/630288263934683733,,Ninh Bình,30,20.236806869506836,105.94017791748047,REGULAR,,Phòng đôi gia đình & Bữa sáng miễn phí,private_room,,,,,False,,/ đêm,3.0,,True,,True,True,True,,True,,,,True,True,,,376.588,₫376.588,,,,,,,,,,True,,,True,True,,,,,,,,,
42351697,https://www.airbnb.com.vn/rooms/42351697,,Ninh Bình,8,20.26236,105.93896,REGULAR,,"Blue Garden 1 - View Lake , Large Garden",private_room,,,,,False,,/ đêm,2.0,,True,True,True,True,True,,,False,False,,,True,True,True,342.353,₫342.353,,,,,,,,,,,,,,,,,,,,,,,
852649455024167265,https://www.airbnb.com.vn/rooms/852649455024167265,,Ninh Xuân,5,20.256997567408852,105.9285232052207,REGULAR,,phòng nhìn ra bể bơi,private_room,,,,,False,,/ đêm,2.0,,True,True,True,True,,True,True,False,False,,,,True,,444.592,₫444.592,,,,,,,,,,,,,,,,,,,,,,,
38076629,https://www.airbnb.com.vn/rooms/38076629,"3,75",Ninh Bình,27,20.24515,105.93615,REGULAR,,Luxury Homestay King Phòng 3: WIFI NHANH,private_room,4,False,True,4,False,,/ đêm,2.0,True,,,True,,True,,True,False,False,True,True,True,,,,,,,,,,,,,,True,,,,,,,,,,,,,
789035703133258732,https://www.airbnb.com.vn/rooms/789035703133258732,,Hoa Lư,28,20.21288,105.93805,REGULAR,,Ngôi làng xinh đẹp ở Tam Cốc,private_room,2,True,True,4,False,,/ đêm,2.0,,,,,,,,True,False,False,,,,,,319.530,₫319.530,,,,,False,,,,,,,,,,,,,,,,,,
872049727256618981,https://www.airbnb.com.vn/rooms/872049727256618981,,Ninh Bình,30,20.24673,105.93425,REGULAR,,Kong's Homestay- Free Breakfast,private_room,,False,True,,False,,/ đêm,2.0,True,,,True,True,True,True,True,False,False,,True,,,,,,True,,,,,,,,,,,,,,,,,,,,,,
781593151209483802,https://www.airbnb.com.vn/rooms/781593151209483802,,Ninh Hải,6,20.217122628051992,105.93301548891601,REGULAR,,Khách sạn Tuấn Ngọc - Phòng đôi có ban công,private_room,,,,,False,,/ đêm,2.0,,,,True,True,True,True,True,False,False,,True,True,,,354.743,₫354.743,,,,,,,,,,True,,,,,,,,,,,,,
32293472,https://www.airbnb.com.vn/rooms/32293472,,Hoa Lư,30,20.25019,105.92855,REGULAR,,Nhà bản xứ Hồ sen Tràng An phòng 3,private_room,,,,,False,,/ đêm,4.0,,,True,True,,True,,,False,False,,,,True,,473.588,₫473.588,,,True,,,,True,,,,,,,,,,,True,,,,,
20791055,https://www.airbnb.com.vn/rooms/20791055,"4,87",Thành phố Ninh Bình,13,20.20668,105.94192,REGULAR,,Tam Cốc xuân lai  homestay 2,private_room,15,False,False,6,False,,/ đêm,4.0,True,,,True,,True,,,False,False,,,,True,,,,,,True,,,,True,,,True,,,True,,,,,,,,,,
781583788606296097,https://www.airbnb.com.vn/rooms/781583788606296097,,Ninh Hải,6,20.217102492390264,105.93292965822754,REGULAR,,Khách sạn Tuấn Ngọc - Phòng đôi có ban công,private_room,,,,,False,,/ đêm,2.0,,,,True,True,True,True,True,False,False,,True,True,,,350.570,₫350.570,,,,,,,,,,True,,,,,,,,,,,,,
637164942236814937,https://www.airbnb.com.vn/rooms/637164942236814937,,Nga Điền,16,20.05869,106.04074,REGULAR,,Nhà nghỉ thôn dã 3 phòng ngủ với khu vườn đẹp,entire_home,,,,,False,,/ đêm,5.0,,,True,True,True,True,,True,,,,True,True,True,,282.294,₫282.294,,,,,,,,,,True,True,,,,,,,,,,,,
45031608,https://www.airbnb.com.vn/rooms/45031608,,Gia Viễn,30,20.35181,105.89587,REGULAR,,Homestay Vân Long,private_room,,False,True,,False,,/ đêm,10.0,,,,True,,True,,,False,False,,True,True,True,,321.187,₫321.187,True,,,,False,,,,,True,,,,,,,,,,,,,
32562356,https://www.airbnb.com.vn/rooms/32562356,,Thành phố Ninh Bình,30,20.2533752,105.9719845,REGULAR,,Phòng Khách Sạn tại trung tâm Thành Phố Ninh Bình.,private_room,,,,,False,,/ đêm,3.0,,,,True,True,True,,True,False,,,,,True,,285.294,₫285.294,True,,,,,,True,,,,True,,,,,,True,,,,,,
786611786580524558,https://www.airbnb.com.vn/rooms/786611786580524558,,Ninh Thắng,5,20.217257419501927,105.95204263599851,REGULAR,,Room 202,private_room,,,,,False,,/ đêm,2.0,,,,True,,True,,True,False,False,,,,True,,268.177,₫268.177,True,,,,,,,,,,,,,,,,,,,,,,
45984061,https://www.airbnb.com.vn/rooms/45984061,,Hoa Lư,28,20.23948,105.93515,REGULAR,,Hang Mua Family King bed Mountian View,private_room,,,,,False,,/ đêm,2.0,,,,True,,True,,,False,False,,,True,True,,342.353,₫342.353,,,,,,,True,,,True,True,,True,,,,,,,,,,
38076724,https://www.airbnb.com.vn/rooms/38076724,,Ninh Bình,27,20.24623,105.93562,REGULAR,,Phòng King sống cùng gia đình bản xứ sang trọng 4: WIFI NHANH,private_room,,False,True,,False,,/ đêm,2.0,True,,,True,,True,,True,False,False,True,True,True,,,450.000,₫450.000,,,,,,,,,,True,,,,,,,,,,,,,
19163757,https://www.airbnb.com.vn/rooms/19163757,"5,0",Thành phố Thanh Hoá,13,19.79559,105.7945,REGULAR,,Căn phòng yên bình với tầm nhìn ra sông ở trung tâm!,private_room,4,False,False,6,False,,/ đêm,2.0,True,,True,True,,True,,,False,False,,True,,,,267.664,₫267.664,True,,,,,,,,,True,,,True,,,,,,,,,,
26398536,https://www.airbnb.com.vn/rooms/26398536,"4,8",Thái Hòa,15,19.28862,105.49095,REGULAR,,Dong Du Eco Homestay,private_room,5,False,False,5,False,,/ đêm,12.0,,True,,True,,True,,,False,False,,True,True,True,True,452.188,₫452.188,,,,,False,,,,,,,,,,,,,,,,,,
15478675,https://www.airbnb.com.vn/rooms/15478675,,,11,20.65161,105.07246,REGULAR,,Mai Châu Family Homestay 15 Bản Lác,hotel_room,,,,,False,,/ đêm,11.0,,,,True,,True,,,False,,,True,True,,,481.803,₫481.803,True,,,True,,,,,,,,,True,,,,,,,,,,
724913429226305037,https://www.airbnb.com.vn/rooms/724913429226305037,,Ninh Hải,30,20.21824,105.91706,REGULAR,,Tam Cốc Rocky Bungalow & Gà,private_room,,,,,False,,/ đêm,6.0,,,True,True,True,True,True,True,False,False,,True,,,,,,,,,,,,,,,,,,,True,,,,,,,,,
20700335,https://www.airbnb.com.vn/rooms/20700335,"4,74",Thành phố Ninh Bình,10,20.20694,105.94023,REGULAR,,Sống cùng gia đình bản xứ Tam Cốc xuân lai,private_room,136,,,,False,,/ đêm,10.0,,,,True,,True,,,False,False,,,,True,,473.588,₫473.588,,,True,True,,,True,,,True,,,,,,,,,,,,,
40428468,https://www.airbnb.com.vn/rooms/40428468,,Thành phố Nha Trang,4,19.83611,105.79375,REGULAR,,Căn hộ mini giá rẻ,private_room,,,,,False,,/ đêm,2.0,,,,True,,True,,,False,,,True,,True,,401.495,₫401.495,True,,,,,,True,,,True,,True,,,,,,,,,,,
40961077,https://www.airbnb.com.vn/rooms/40961077,,Hoa Lư,11,20.21179,105.93761,REGULAR,,Nhà sinh thái Tamcoc - Nhà bạc hà,private_room,1,True,True,4,False,,/ đêm,2.0,,True,,True,,True,,,False,False,,True,True,True,,336.647,₫336.647,,,,,False,,,,,,,,,,,,,,,,,,
32659732,https://www.airbnb.com.vn/rooms/32659732,,Hoa Lư,30,20.24944,105.92928,REGULAR,,Trang An Lotus Lake Homestay room 7,private_room,,,,,False,,/ đêm,4.0,,,,True,,True,,,,,,,,True,,473.588,₫473.588,,,True,,,,True,,,,,,,,,,,True,,,,,
39828365,https://www.airbnb.com.vn/rooms/39828365,,Săm Khòe,30,20.65693,105.00983,REGULAR,,đẹp và yên tĩnh thư giãn và thoát khỏi sự ồn ào,private_room,,False,False,,False,,/ đêm,14.0,,,True,,,True,,,False,False,,True,True,True,True,401.495,₫401.495,,,,,False,,,,,True,,,,,,,,,,,,,
767078618454340524,https://www.airbnb.com.vn/rooms/767078618454340524,,Ninh Xuân,30,20.23576,105.94092,REGULAR,,Phòng cho 2 người có ban công.,private_room,,,,,False,,/ đêm,2.0,,,,True,True,True,,True,,,,,,True,,399.412,₫399.412,,,,,,,True,,,,,,,,,,,,,,,,
781608249906938246,https://www.airbnb.com.vn/rooms/781608249906938246,,Ninh Hải,6,20.21706222105897,105.93292965822754,REGULAR,,Khách sạn Tuấn Ngọc - Phòng đôi có ban công,private_room,,False,True,,False,,/ đêm,2.0,,,,True,True,True,True,,False,False,,True,True,,,350.570,₫350.570,,,,,False,,,,,True,,,,,,,,,,,,,
32659313,https://www.airbnb.com.vn/rooms/32659313,,Hoa Lư,30,20.24789,105.93045,REGULAR,,Trang An Lotus Lake Homestay phòng 5,private_room,,,,,False,,/ đêm,4.0,,,,True,,True,,,,,,,,True,,473.588,₫473.588,,,True,,,,True,,,,,,,,,,,True,,,,,
4399950,https://www.airbnb.com.vn/rooms/4399950,,Cổ Lũng,30,20.47701,105.2169,REGULAR,,Nhà sinh thái của ông Ba.,shared_room,,,,,False,,/ đêm,16.0,,,,,,True,,,False,False,,True,True,,,273.883,₫273.883,True,,,True,,,True,,,,,,,,,,,,,,,,
48309987,https://www.airbnb.com.vn/rooms/48309987,,Thành phố Thanh Hoá,6,19.73862,105.9007,REGULAR,,Nhà Nghỉ Thứ Bình,private_room,,False,False,,False,,/ đêm,16.0,,,,True,,,,,False,False,,,,True,,285.294,₫285.294,True,,,True,False,,,,,,,,,,,,,,,,,,
37340734,https://www.airbnb.com.vn/rooms/37340734,,Ninh Bình,9,20.21762,105.93743,REGULAR,,Little River Bungalow,private_room,,False,True,,False,,/ đêm,2.0,True,,,True,,True,True,,False,False,,,True,True,,456.471,₫456.471,,,,,,,,,,True,,,True,,,,,,,,,,
767030647625797217,https://www.airbnb.com.vn/rooms/767030647625797217,,Ninh Xuân,25,20.234865889167573,105.94229437435445,REGULAR,,Phòng cho 3 người giường lớn.,private_room,,,,,False,,/ đêm,2.0,,,,True,True,True,,True,,,,,,True,,399.412,₫399.412,,,,,,,True,,,,,,,,,,True,,,,,,
44545494,https://www.airbnb.com.vn/rooms/44545494,,Thành phố Ninh Bình,16,20.27495,105.96225,REGULAR,,Nhà sàn Mường Homestay nơi nghỉ dưỡng ẫn tượng,private_room,,False,False,,False,,/ đêm,16.0,,,,True,,True,True,,False,False,,,,True,,342.353,₫342.353,,,True,,False,True,True,,,,,,,,,,,,,,,,
37238038,https://www.airbnb.com.vn/rooms/37238038,,Mai Hịch,30,20.60794,105.01125,REGULAR,,Trở thành một phần của gia đình chúng tôi!,shared_room,,,,,False,,/ đêm,16.0,,,,True,,True,,,False,False,,True,,,,267.656,₫267.656,,,True,True,,,,,,True,,,,,,,,,,,,,
767100448990634710,https://www.airbnb.com.vn/rooms/767100448990634710,,Ninh Xuân,19,20.23458,105.94107,REGULAR,,Phòng đơn và ăn sáng Miễn phí.,private_room,,,,,False,,/ đêm,2.0,,,,True,True,True,,True,,,,True,,True,,456.471,₫456.471,,,,,,,True,,,,,,,,,True,,,,,,,
620003760904628337,https://www.airbnb.com.vn/rooms/620003760904628337,,Hoa Lư,28,20.21468,105.93925,REGULAR,,Phòng đôi có sân hiên nhìn ra vườn,private_room,,False,True,,False,,/ đêm,2.0,,,,,,,,True,False,False,,,True,,,342.353,₫342.353,,,,True,False,,,,,,,,,,,,,,,,,,
785926775069460064,https://www.airbnb.com.vn/rooms/785926775069460064,,Hoa Lư,6,20.21667,105.93639,REGULAR,,"Vị trí trung tâm, sạch sẽ,giá rẻ",private_room,,,,,False,,/ đêm,2.0,,True,True,True,True,,,True,False,False,,,,True,,327.333,₫327.333,,,,,,,,,,,,,,True,,,,,True,,,,
759818421356828536,https://www.airbnb.com.vn/rooms/759818421356828536,,,23,20.24853,105.91226,REGULAR,,Homestay của Chi,private_room,,,,,False,,/ đêm,2.0,,,True,True,,True,True,True,False,False,,True,,True,,433.647,₫433.647,,,,,,,,,,,,,,,,,,,,,,,
45352256,https://www.airbnb.com.vn/rooms/45352256,,Lạc Sơn,22,20.40579,105.36961,REGULAR,,Tắm tiên suối mu,shared_room,,,,,False,,/ đêm,16.0,,True,,True,,True,,,False,False,,True,,,True,273.883,₫273.883,True,,,,,,,,,True,,,,,,,,True,,,,,
29529865,https://www.airbnb.com.vn/rooms/29529865,"4,63",Thành phố Ninh Bình,10,20.25106,105.96773,REGULAR,,Chỗ ở tại nhà Green Papaya (trước đây là Kim Liên),private_room,27,False,False,5,False,,/ đêm,2.0,,,,True,,,,True,False,False,,,,True,,295.793,₫295.793,,,,,False,,,,,,True,,,,,,,,,,,True,
767081888495456167,https://www.airbnb.com.vn/rooms/767081888495456167,,Ninh Xuân,26,20.2346,105.94285,REGULAR,,Phòng cho 2 người.,private_room,,,,,False,,/ đêm,2.0,,,,True,True,True,,True,,,,,,True,,399.412,₫399.412,,,,,,,True,,,,,,,,,,,,,,,,
21843374,https://www.airbnb.com.vn/rooms/21843374,"4,44",Thành phố Ninh Bình,12,20.28174,105.86507,REGULAR,,Gấp đôi với tầm nhìn ra vườn,hotel_room,9,,,,False,,/ đêm,2.0,,,,True,,True,,,False,,,True,,True,,481.796,₫481.796,,,True,,,,True,,,True,,,True,,,,,True,,,,,
42011711,https://www.airbnb.com.vn/rooms/42011711,,H. Hoa Lư,7,20.21647,105.93924,REGULAR,,Phòng có ban công & GẦN Tam Cốc 100m,private_room,,,,,False,,/ đêm,2.0,,,,True,,True,,,False,False,,,True,True,,456.471,₫456.471,,,,,,,True,,,,,,,,,,,,,,,,
10686764,https://www.airbnb.com.vn/rooms/10686764,"4,67",,30,20.28551,105.86299,REGULAR,,Vườn Homestay,private_room,3,False,False,7,False,,/ đêm,2.0,True,,,True,,True,,,False,False,,,True,True,True,294.433,₫294.433,,,,True,,,True,,,,,,,,,,,,,,,,
29749592,https://www.airbnb.com.vn/rooms/29749592,,Ninh Bình,30,20.24854,105.9345,REGULAR,,Ninh Binh Phuong family,private_room,,False,False,,False,,/ đêm,3.0,,,,True,,,,,False,False,,True,True,True,,268.177,₫268.177,,,,True,False,,True,,,,,,True,,,,,,,,,,
42460409,https://www.airbnb.com.vn/rooms/42460409,,Hoa Lư,4,20.21544,105.93593,REGULAR,,Nam Nhung Tam Coc Homestay,private_room,,False,False,,False,,/ đêm,2.0,True,True,,True,,True,,,,,,,,True,,490.706,₫490.706,,,True,True,,,True,,,True,,,True,,,,,,,,,,
42372548,https://www.airbnb.com.vn/rooms/42372548,,Thành phố Ninh Bình,30,20.2512,105.9421,REGULAR,,Sống cùng gia đình bản xứ tại Vườn Tràng An,private_room,,,,,False,,/ đêm,2.0,,,,True,,True,,,,,,True,True,True,True,399.412,₫399.412,,,,,,True,True,,,True,,,,,,True,,,,,,,
38557697,https://www.airbnb.com.vn/rooms/38557697,,Hoa Lư,30,20.23559,105.94098,REGULAR,,Hoang Homestay,entire_home,,,,,False,,/ đêm,4.0,,,True,True,,True,,,False,False,,True,True,,,489.478,₫489.478,True,,,,,,,,,True,,,True,,,,,,,,,,
36780642,https://www.airbnb.com.vn/rooms/36780642,,Thị xã Sầm Sơn,10,19.7308,105.89851,REGULAR,,Mùi oanh sầm Sơn,private_room,,,,,False,,/ đêm,4.0,,,,True,True,,,,False,False,,,True,True,,456.471,₫456.471,True,,,True,,,,,,True,True,,,,,,,,,,,,
841073266977352960,https://www.airbnb.com.vn/rooms/841073266977352960,,Sầm Sơn,8,19.7328408,105.8987134,REGULAR,,"Khách sạn Hương Lý, Sầm Sơn",private_room,,,,,False,,/ đêm,4.0,,,,True,,True,,True,False,,,,,True,,456.471,₫456.471,True,,,,,,,True,,,,,,,,True,,,,,,,
46207785,https://www.airbnb.com.vn/rooms/46207785,,Hoa Lư,19,20.21746,105.94925,REGULAR,,Phòng 1 giường cỡ lớn,private_room,,False,True,,False,,/ đêm,2.0,True,True,,True,,True,True,,False,False,,True,,True,,456.471,₫456.471,True,,,,,,,,,,,,,,,,,,,,,,
45998973,https://www.airbnb.com.vn/rooms/45998973,,Ninh Thắng,30,20.21902,105.9519,REGULAR,,Green Space Homestay  Deluxe Room 202,private_room,,False,True,,False,,/ đêm,2.0,True,,,True,True,True,,,False,False,,True,,True,,330.941,₫330.941,,,,,,,,,,True,,,True,,,,,,,,,,
786660940215402262,https://www.airbnb.com.vn/rooms/786660940215402262,,Ninh Thắng,5,20.217277555143603,105.95217138203122,REGULAR,,Phòng 204,private_room,,,,,False,,/ đêm,4.0,,,,True,,True,,True,False,False,,,,True,,414.111,₫414.111,True,,,,,,,,,,,,,,,,,,,,,,
26283744,https://www.airbnb.com.vn/rooms/26283744,,Ninh Hải,13,20.21489,105.93741,REGULAR,,Homestay độc đáo của Phi Hùng,private_room,,False,False,,False,,/ đêm,2.0,True,,,True,True,,,,False,False,,True,,True,,445.059,₫445.059,,,True,,,,,,,True,,,,,,,,,,,,,
30254427,https://www.airbnb.com.vn/rooms/30254427,,,30,19.38694,105.74117,REGULAR,,"Khách sạn đẹp và cổ kính,hiện đại",private_room,,,,,False,,/ đêm,2.0,,,,True,,True,True,,,,,True,True,,,342.352,₫342.352,True,,,,,True,,,,True,,True,True,,,,,,,,,,
49298724,https://www.airbnb.com.vn/rooms/49298724,,Thành phố Ninh Bình,13,20.2705,105.95874,REGULAR,,Nhà máy,private_room,,False,False,,False,,/ đêm,2.0,True,,,True,True,True,,,False,False,,True,,True,,285.294,₫285.294,,,,,,,True,,,True,,,,,,,,,,,,,
38996689,https://www.airbnb.com.vn/rooms/38996689,,Hoa Lư,10,20.2156,105.93733,REGULAR,,thien van hotel & spa,private_room,,,,,False,,/ đêm,2.0,,,,True,,,,,False,False,,,True,True,,456.471,₫456.471,,,,,,,True,,,,,,,,,,,,,,,,
44389039,https://www.airbnb.com.vn/rooms/44389039,,Thành phố Ninh Bình,9,20.26606,105.94864,REGULAR,,Căn nhà gỗ cổ bắc bộ,entire_home,,,,,False,,/ đêm,4.0,,,,True,,True,,True,False,False,,True,True,True,,267.664,₫267.664,,,,True,,,True,,,,,,,,,,,,,,,,
34551805,https://www.airbnb.com.vn/rooms/34551805,,Gia Viễn,11,20.29373,105.86343,REGULAR,,Phòng đôi/Bữa sáng/Ninh Bình-GiaNguyenHotel,private_room,,,,,False,,/ đêm,2.0,,,,True,,True,,,False,False,,True,,True,,308.072,₫308.072,True,,True,,,,True,,,,,,,,,,,,,,,,
23981450,https://www.airbnb.com.vn/rooms/23981450,,Gia Vân,12,20.35792,105.88156,REGULAR,,Sống cùng gia đình bản xứ Ninh Bình,private_room,,False,True,,False,,/ đêm,2.0,,,,True,,,,,False,False,,,,True,,374.710,₫374.710,,,True,True,False,,True,,,True,,,,,,,,,,,,,
40493113,https://www.airbnb.com.vn/rooms/40493113,,H. Hoa Lư,9,20.23671,105.9394,REGULAR,,Ninh Binh Village 1990 Homestay & Breakfast,private_room,,,,,False,,/ đêm,2.0,,,,True,,True,,,False,False,,True,,True,,294.433,₫294.433,,,True,,,,True,,,True,,,True,,,,,,,,,,
40297020,https://www.airbnb.com.vn/rooms/40297020,,H. Hoa Lư,13,20.21812,105.95317,REGULAR,,Anh homestay Ninh Bình,private_room,,False,False,,False,,/ đêm,2.0,True,,True,True,True,True,,,False,False,,True,,True,,285.294,₫285.294,True,,,,,,,,,,,,,,,,,,,,,,
10687117,https://www.airbnb.com.vn/rooms/10687117,,,27,20.2861,105.86448,REGULAR,,Vườn Homestay,private_room,1,False,False,7,False,,/ đêm,4.0,True,,,True,,True,,,False,False,,,True,True,True,374.710,₫374.710,,,,,,,True,,,,,,,,,,,,,,,,
781601615417492681,https://www.airbnb.com.vn/rooms/781601615417492681,,Ninh Hải,5,20.21773,105.93381,REGULAR,,Tuấn Ngọc Hotel - Double Room With Balcony,private_room,,,,,False,,/ đêm,2.0,,,,True,True,True,True,,False,False,,True,True,True,,350.570,₫350.570,,,,,,,,,,True,,,,,,,,,,,,,
23064719,https://www.airbnb.com.vn/rooms/23064719,"4,66",Thành phố Ninh Bình,10,20.25106,105.96773,REGULAR,,Chỗ ở tại nhà Papaya xanh,private_room,110,False,False,5,False,,/ đêm,2.0,,,,True,,,,True,False,False,,,,True,,326.605,₫326.605,,,,,False,,True,,,,True,,,,,,,,,,,True,
44113019,https://www.airbnb.com.vn/rooms/44113019,,Hoa Lư,14,20.21321,105.93744,REGULAR,,phòng đôi có ban công - tam ca tuồng vy homestay,private_room,,,,,False,,/ đêm,2.0,,,,True,True,True,,,False,False,,,True,True,,478.199,₫478.199,,,True,True,,,True,,,,,,,,,,,,,,,,
777402406098540618,https://www.airbnb.com.vn/rooms/777402406098540618,,Gia Viễn District,9,20.258320083512725,105.8719780028713,REGULAR,,Homestay Bungalow Ninh Bình,private_room,,False,False,,False,,/ đêm,14.0,,,,True,True,True,,True,False,False,,True,True,,,455.330,₫455.330,True,,,,False,,,,,,,,,,,,,,,,,,
29507207,https://www.airbnb.com.vn/rooms/29507207,,Tỉnh Ninh Bình,7,20.212054192093373,105.93533946641887,REGULAR,,anh huong tam coc homestay - bungalow family,private_room,,,,,False,,/ đêm,4.0,,,True,True,,True,,,False,False,,,,True,True,481.803,₫481.803,True,,,,,,,,,,True,,True,,,,,,,,,,
45706682,https://www.airbnb.com.vn/rooms/45706682,,Mai Châu,10,20.65302,105.07976,REGULAR,,Mộc nhiên homstay Maichau,private_room,,,,,False,,/ đêm,15.0,,True,,True,,True,,,False,,,,,True,True,399.412,₫399.412,,,,,,,True,,,True,True,,,,,True,,,,,,,
18557432,https://www.airbnb.com.vn/rooms/18557432,,Thành phố Hòa Bình,9,20.65425,105.07431,REGULAR,,"Gia đình bản xứ Từ Nhung, làng Pom Coong,",shared_room,,,,,False,,/ đêm,16.0,,,,True,,True,,,False,,,,,,,268.177,₫268.177,True,,True,True,,True,True,,,True,,,True,,,,,,,,,,
40463812,https://www.airbnb.com.vn/rooms/40463812,,Thành phố Ninh Bình,27,20.24911,105.9755,REGULAR,,Sống cùng gia đình bản xứ Eureka,private_room,,False,False,,False,,/ đêm,10.0,,,,True,,True,,,False,False,,True,,True,,399.412,₫399.412,True,,,,False,True,True,,,,,,,,,,,,,,,,
38711473,https://www.airbnb.com.vn/rooms/38711473,,Hoa Lư,1,20.21558,105.93589,REGULAR,,Ngôi nhà Việt Nam! - Tam Cốc Craft Homestay,private_room,,False,True,,False,,/ đêm,2.0,True,,,True,,True,,,False,False,,,,True,,433.647,₫433.647,,,True,,,,True,,,True,,,True,,,,,,,,,,
33320066,https://www.airbnb.com.vn/rooms/33320066,,Hoa Lư,21,20.24315,105.93651,REGULAR,,Bungalow,private_room,,,,,False,,/ đêm,2.0,,,,True,,True,,,False,False,,,True,True,,473.588,₫473.588,,,,,,,True,,True,,,,,,,True,,True,,,,,
33236474,https://www.airbnb.com.vn/rooms/33236474,,Ninh binh,8,20.21427,105.93187,REGULAR,,BUNGALOW BA,private_room,,,,,False,,/ đêm,3.0,,,,True,,True,True,,False,False,,,True,True,,,,,,,,,True,,,,True,,,True,,,,,,,,,,
32658795,https://www.airbnb.com.vn/rooms/32658795,,Hoa Lư,30,20.24815,105.92838,REGULAR,,Phòng Tràng An Lotus Lake Homestay 4,private_room,1,False,True,4,False,,/ đêm,4.0,,,,True,,True,,,,,,,,True,,473.588,₫473.588,,,True,,False,,True,,,,,,,,,,,,,,,,
40099742,https://www.airbnb.com.vn/rooms/40099742,,Ninh Bình,10,20.24933,105.91033,REGULAR,,Sống cùng gia đình bản xứ trong bài hát Chim sẻ,private_room,,,,,False,,/ đêm,2.0,,,,True,,True,True,,False,False,,True,,True,,428.233,₫428.233,,,True,,,,True,,,,,,,,,True,,,,,,,
24010076,https://www.airbnb.com.vn/rooms/24010076,,,9,20.29513,105.94639,REGULAR,,phòng riêng,shared_room,,,,,False,,/ đêm,6.0,,,,True,,True,,,False,,,,True,True,,260.188,₫260.188,,,True,,,,True,,,True,,,True,,,,,,,,,,True
45724199,https://www.airbnb.com.vn/rooms/45724199,,Chiềng Châu,8,20.6421,105.07759,REGULAR,,Mộc Nhiên Homstay,private_room,,,,,False,,/ đêm,15.0,,True,,True,,True,,,False,,,True,,True,True,399.412,₫399.412,,,,,,,,,,True,True,,True,,,,,,,,,,
36245305,https://www.airbnb.com.vn/rooms/36245305,,Chiềng Châu,2,20.65129,105.06444,REGULAR,,Nhà nghỉ dưỡng,entire_home,,,,,False,,/ đêm,16.0,,True,,True,,True,,,False,False,,True,True,True,True,308.118,₫308.118,True,,,,,,,,,,,,,,,,,,,,,,
34639730,https://www.airbnb.com.vn/rooms/34639730,,Ninh Bình,30,20.35498,105.88076,REGULAR,,Bungalow Double with Garden and Lake View,private_room,,False,True,,False,,/ đêm,2.0,True,,,True,,True,,,False,False,,True,,True,,401.495,₫401.495,True,,,,,,,,,True,,,,,,,,True,,,,,
24334785,https://www.airbnb.com.vn/rooms/24334785,,Gia Sinh,24,20.2902,105.86293,REGULAR,,Bai Dinh Eco Homestay,private_room,,False,True,,False,,/ đêm,2.0,,,,True,True,True,,,False,False,,True,True,,,458.396,₫458.396,True,,,,False,,,,,True,,,,,,,,,,,,,
28248064,https://www.airbnb.com.vn/rooms/28248064,,Gia Viễn,12,20.26428,105.87078,REGULAR,,Dream1room-Ninhbinhbaboofarmstay,private_room,,False,False,,False,,/ đêm,2.0,True,,,True,,True,,,False,False,,,,True,,401.475,₫401.475,,,,,,,True,,,True,True,,True,,,,,,,,,,
24413873,https://www.airbnb.com.vn/rooms/24413873,,Sầm Sơn,6,19.76402,105.8969,REGULAR,,Nhà du khách tại bãi biển Sầm Sơn,private_room,,,,,False,,/ đêm,16.0,,,,True,,True,,,False,False,,,True,True,,347.972,₫347.972,True,,,True,,,True,,,,,,,,,,,,,,,,
23598159,https://www.airbnb.com.vn/rooms/23598159,,Gia Sinh,22,20.27945,105.85483,REGULAR,,Sống cùng gia đình bản xứ thân thiện_Độc thân sang trọng,private_room,,,,,False,,/ đêm,2.0,,,,True,,True,,,False,False,,True,True,True,,347.972,₫347.972,True,,,,,,,,,True,,,True,,,,,,,,,,
36158252,https://www.airbnb.com.vn/rooms/36158252,,Trường Yên,30,20.28431,105.90601,REGULAR,,QUÁN bar & SỐNG CÙNG GIA ĐÌNH BẢN xứ với DÊ,hotel_room,,,,,False,,/ đêm,16.0,,,,True,,True,,,False,False,,True,,True,,268.177,₫268.177,True,,True,,,,True,,,True,,,,,,,,,,,,,
832962346638313398,https://www.airbnb.com.vn/rooms/832962346638313398,,Ninh Thắng,7,20.217337962053016,105.95223575504758,REGULAR,,Room 203,private_room,,,,,False,,/ đêm,2.0,,,,,,,,True,False,False,,,,,,342.353,₫342.353,,,,,,,,,,True,,,,,,,,,,,,,
25069345,https://www.airbnb.com.vn/rooms/25069345,,Gia Sinh,6,20.27888,105.87072,REGULAR,,Hướng nhìn ra vườn Bungalow tiêu chuẩn,private_room,2,False,True,7,False,,/ đêm,2.0,,,,True,,True,,,False,False,,,,True,,450.000,₫450.000,,,True,,False,,True,,,,,,True,,,,,,,,,,
42617652,https://www.airbnb.com.vn/rooms/42617652,,Thành phố Thanh Hoá,6,19.80818,105.76782,REGULAR,,Phòng cho thuê,entire_home,,,,,False,,/ đêm,2.0,,,,True,,True,,,False,False,,True,True,True,,,,,,,,,,True,,,True,,,True,,,,,,,,,,
857558438050002582,https://www.airbnb.com.vn/rooms/857558438050002582,,Hoa Lư,5,20.21491,105.93454,REGULAR,,Room for 2 people - 1 bed,private_room,,,,,False,,/ đêm,,,,,True,,True,,True,False,False,,,,True,,342.353,₫342.353,,,,,,,,,True,,,,,,,,,,,,,,
28498796,https://www.airbnb.com.vn/rooms/28498796,,Ninh Binh,6,20.26217,105.91191,REGULAR,,"Nhà ngân sách khu vực Tràng An, Ninh Bình",private_room,,,,,False,,/ đêm,2.0,,,,True,,True,,,False,False,,,True,True,,268.177,₫268.177,,,,True,,,,,,,,,,,,,,,,,,,
18916449,https://www.airbnb.com.vn/rooms/18916449,"4,87",Gia Vân,30,20.35426,105.87912,REGULAR,,Gia đình bản xứ VanLong,private_room,15,False,True,6,False,,/ đêm,2.0,True,,,True,,True,,,False,False,,True,True,True,,418.903,₫418.903,,,,,,,,,,True,,,True,,,,,,,,,,
667116807531181179,https://www.airbnb.com.vn/rooms/667116807531181179,,Ninh Hải,10,20.2204143,105.9053689,REGULAR,,"Cánh đồng lúa Tam cốc homestay
Chào đón bạn nồng nhiệt",private_room,,False,True,,False,,/ đêm,16.0,,True,,True,True,True,,True,False,False,True,True,,,,365.177,₫365.177,,,,,False,,,,,,,,,,,,,,,,,,
37544413,https://www.airbnb.com.vn/rooms/37544413,,Thành phố Thanh Hoá,5,19.79505,105.78227,REGULAR,,Apartment for you,private_room,,False,False,,False,,/ đêm,3.0,,,,True,,,,,False,False,,True,,True,,422.853,₫422.853,True,,,,False,,,,,True,,True,,,,,,True,,,,,
10006748,https://www.airbnb.com.vn/rooms/10006748,"4,47",,29,20.28691,105.86371,REGULAR,,Vườn Homestay,private_room,17,False,False,7,False,,/ đêm,2.0,,,,True,,True,,,False,False,,True,True,True,,267.664,₫267.664,True,,,,False,,,,,True,,,,,,,,,,,,,
35773766,https://www.airbnb.com.vn/rooms/35773766,,Thành phố Ninh Bình,6,20.25702,105.97664,REGULAR,,Ninh Bình,private_room,,False,False,,False,,/ đêm,1.0,,,,True,,True,,,False,False,,,,True,,427.941,₫427.941,True,,,,False,,,,,,,,True,,,,,,,,,,
25633513,https://www.airbnb.com.vn/rooms/25633513,,Ninh Bình,9,20.21755,105.93738,REGULAR,,Homestay độc đáo của Phi Hùng thực sự độc đáo,private_room,,False,False,,False,,/ đêm,2.0,True,,,True,,True,,,False,,,True,,True,,445.059,₫445.059,,,,,,True,True,,,True,,,True,,,,,,,,,,
43329063,https://www.airbnb.com.vn/rooms/43329063,,Thành phố Phủ Lý,12,20.53837,105.9269,REGULAR,,Nha biệt thự ở tĩnh năng  hồ võ thị sáu,private_room,,False,True,,False,,/ đêm,4.0,True,,,True,,True,,,False,False,,True,,True,,456.471,₫456.471,True,,,,,,,,,True,,,True,,,,,,,,,,
